RHP Site Code,Latitude,Longitude,,
A1NGOT-DINOK,-25.45528,25.85377,,
A1NGOT-PUANE,-25.4292,25.86717,,
A2APIE-BOSCH,-25.34586,28.26992,,
A2APIE-BRIDG,-25.66556,28.18861,,
A2APIE-DEON2,-25.65894,28.18756,,
A2APIE-DEON3,-25.6835,28.18719,,
A2APIE-DEON4,-25.69358,28.18694,,
A2APIE-DEOND,-25.61681,28.19158,,
A2APIE-PRETO,-25.72692,28.17192,,
A2APIE-VASTF,-25.5507,28.24371,,
A2BLOU-KROMD,-25.98139,27.78806,,
A2BLOU-RIETF,-25.96778,27.80111,,
A2BLOU-ZWART,-25.97722,27.83389,,
A2BRAA-PARKH,-26.13833,28.01072,,
A2CROC-BENAL,-24.64148,27.36812,,
A2CROC-ELAND,-25.94694,27.88139,,
A2CROC-HARTB,-25.8004,27.896,,
A2CROC-KOEDO,-24.88975,27.51833,,
A2CROC-MAKOP,-24.40645,27.11553,,
A2CROC-MORGE,-24.29253,27.028,,
A2CROC-MOUNT,-25.7168,27.8431,,
A2CROC-ROODE,-26.0635,27.8416,,
A2CROC-SWEET,-24.58768,27.24967,,
A2CROC-VAALK,-25.20597,27.55786,,
A2CROC-ZOUTP,-25.54833,27.70939,,
A2DWAR-BULHO,-25.55475,26.90861,,
A2DWAR-WATER,-25.51614,26.93219,,
A2EDEN-FRANS,-25.67828,28.40167,,
A2ELAN-BESTE,-25.46392,26.78925,,
A2ELAN-DOORK,-25.71619,26.71786,,
A2ELAN-DOORN,-25.83569,26.75539,,
A2ELAN-FRISC,-25.3929,27.071,,
A2ELAN-HOOGE,-25.44686,26.89442,,
A2ELAN-KLIPB,-25.72656,26.72044,,
A2ELAN-LINDL,-25.48108,26.69039,,
A2ELAN-NOOIT,-25.58181,26.67822,,
A2ELAN-RIETS,-25.33489,27.29089,,
A2ELAN-SWART,-25.6504,26.691,,
A2ELAN-VLAKF,-25.86272,26.77842,,
A2HART-KAMEE,-25.65286,28.31172,,
A2HENN-HENNO,-25.82556,27.98944,,
A2HENN-MOOIP,-25.83472,28.12417,,
A2HENO-GLENA,-25.95824,28.14319,,
A2HEXR-BUFFE,-25.93947,27.33561,,
A2HEXR-LEEUW,-25.88189,27.31008,,
A2HEXR-OLIFA,-25.81842,27.27067,,
A2HEXR-PAARD,-25.60828,27.28897,,
A2HEXR-ROOIW,-25.52136,27.37528,,
A2JUKS-DIENR,-25.9081,27.94801,,
A2KARE-HARTB,-25.65619,27.65864,,
A2KARE-ZOUTP,-25.57478,27.68303,,
A2KLIE-RANDB,-26.063,27.975,,
A2KOST-NAAUW,-25.75286,26.89011,,
A2LERA-HARTB,-25.35919,27.2105,,
A2MAGA-BOYST,-25.99989,27.54914,,
A2MAGA-BULTF,-25.84111,27.66611,,
A2MAGA-CAMPD,-25.98189,27.53964,,
A2MAGA-HARTE,-25.87,27.615,,
A2MAGA-LOVER,-25.98172,27.538,,
A2MAGA-MALON,-26.02167,27.56472,,
A2MAGA-WHICK,-25.98625,27.53769,,
A2MORE-FAIRY,-25.77369,28.29178,,
A2PIEN-BAVIA,-25.66312,28.35104,,
A2PIEN-BUFFE,-25.13958,27.69114,,
A2PIEN-DINOK,-25.4008,28.31269,,
A2PIEN-IFR2S,-25.12061,27.78778,,
A2PIEN-KLIPD,-25.38847,28.31164,,
A2PLAT-KOMAN,-24.83417,28.22478,,
A2PLAT-NOODS,-24.90608,28.25797,,
A2RAMO-KLIPK,-25.507,27.69331,,
A2RIET-KNOPI,-25.89139,28.11972,,
A2ROSE-MAMOG,-25.55339,27.79475,,
A2SAND-BRAKV,-24.68418,27.46897,,
A2SAND-NOOIT,-25.52742,28.02808,,
A2SKEE-HARTB,-25.84556,27.78389,,
A2SKEE-UITKO,-25.89167,27.75833,,
A2STER-BUFFE,-25.80744,27.47814,,
A2STER-KROMR,-25.82318,27.41515,,
A2STER-MAMOG,-25.59839,27.50575,,
A2STER-RIETF,-25.83353,27.38847,,
A2STER-SCHA1,-25.63487,27.48946,,
A2STER-SCHA2,-25.6305,27.48711,,
A2STER-SCHA3,-25.62753,27.48838,,
A2STER-SCHA4,-25.62767,27.49852,,
A2STER-SCHA5,-25.61383,27.49796,,
A2STER-SCHA6,-25.80737,27.47832,,
A2STER-SPRUI,-25.72578,27.483,,
A2STER-WAAIK,-25.52606,27.55236,,
A2STER-ZWART,-25.64964,27.48381,,
A2SUIG-STEEN,-25.69642,26.867,,
A2SUND-BUFFE,-24.5381,27.6408,,
A2SUND-ERASM,-24.5635,27.6122,,
A2SUND-WATER,-24.63252,27.60578,,
A2SUND-ZIMTH,-24.567,27.6054,,
A2SWAR-ELAND,-25.96917,28.30111,,
A2TOLW-KLIPG,-25.46378,27.99431,,
A2TOLW-NOOIT,-25.49472,28.02231,,
A2TOLW-PALMI,-25.32836,27.82719,,
A2TOOY-ETOSH,-24.85752,27.91088,,
A2TRIB-KLIPG,-25.47678,27.99182,,
A2UNSP-KROMR,-25.82081,27.44481,,
A2UNSP-TRIBU,-25.83644,26.75561,,
A2VING-KAREE,-24.678,27.8991,,
A2WATE-KGASW,-25.73924,27.23028,,
A2WATE-WATER,-25.7361,27.26675,,
A3BOKK-BOKKR,-25.80814,26.45658,,
A3BOKK-WATER,-25.79871,26.4487,,
A3DRAA-BRONK,-25.69372,26.43011,,
A3DRAA-DRAAI,-25.74461,26.35217,,
A3DRAA-KUILF,-25.75648,26.32518,,
A3DRAA-RHENO,-25.74097,26.34797,,
A3GMAR-DERDE,-24.65031,26.40981,,
A3GMAR-DOORN,-25.56369,26.40539,,
A3GMAR-KOEDO,-25.65869,26.435,,
A3GMAR-LOTTE,-24.84439,26.486,,
A3GMAR-RIEKE,-25.46119,26.39189,,
A3GMAR-RIVER,-25.64158,26.43191,,
A3GMAR-SALLI,-25.63286,26.40967,,
A3GMAR-TSWAS,-24.70581,26.42367,,
A3GMAR-UITKY,-25.19756,26.41361,,
A3GMAR-VERGE,-25.64261,26.41319,,
A3GMAR-WONDE,-25.58903,26.41253,,
A3KAAL-GROOT,-25.78361,26.37931,,
A3KAAL-RIETS,-25.777,26.43339,,
A3KARE-ABJAT,-25.54147,26.10222,,
A3KARE-GHOLF,-25.54689,26.07361,,
A3KARE-RAILW,-25.54722,26.08892,,
A3KMAR-DOORN,-25.688,26.14148,,
A3KMAR-KALKD,-25.51633,26.15861,,
A3KMAR-NOOIT,-25.50539,26.20619,,
A3MARI-DERD1,-24.651,26.403,,
A3MARI-DERD2,-24.647,26.409,,
A3MOLE-KAFFE,-25.63583,25.95806,,
A3MOLE-OTTOS,-25.74667,25.97353,,
A3MOLE-PAARD,-25.62774,26.00705,,
A3POLK-DOORD,-25.66619,26.57175,,
A3POLK-SWART,-25.68789,26.63158,,
A3POLK-TWYFE,-25.64697,26.48928,,
A3POLK-VLEID,-25.66758,26.618,,
A3RIBB-SYFER,-25.79211,26.521,,
A3RIET-RENOS,-25.82181,26.43628,,
A3SAND-BUISP,-25.30086,25.94603,,
A3UITV-STERK,-25.66697,26.53997,,
A3UNSP-BOKKR,-25.69364,26.61528,,
A3UNSP-BORAK,-25.28734,25.89918,,
A3UNSP-LEEUW,-25.31661,26.11315,,
A3UNSP-MEZEG,-25.37373,26.21785,,
A3UNSP-MIDDE,-25.65807,26.3363,,
A3UNSP-RIETV,-25.68331,26.61994,,
A3VANS-RIETF,-25.73961,26.52442,,
A4DWAR-JIMMS,-24.27184,28.20002,,
A4DWAR-JIMSE,-24.27183,28.1947,,
A4DWAR-VAALW,-24.26736,28.21873,,
A4DWAR-ZAND1,-24.26736,28.21873,,
A4DWAR-ZANDD,-24.26293,28.2103,,
A4FRIK-FRIKK,-24.31397,27.95724,,
A4FRIK-SHAM1,-24.3425,27.96355,,
A4FRIK-SHAM2,-24.2779,27.97197,,
A4GROO-GROOT,-24.48617,28.04541,,
A4KLSA-BOEKE,-24.45888,28.16963,,
A4KVAA-VAALW,-24.21941,28.05363,,
A4LIMP-CAMBR,-23.41708,27.43052,,
A4MAMB-BUFFE,-24.3255,27.69411,,
A4MAMB-HOPEW,-24.21271,27.50718,,
A4MATL-HOOPD,-24.30814,27.51618,,
A4MATL-MATJE,-23.97658,27.17596,,
A4MATL-MATLA,-24.41273,27.604,,
A4MATL-PHOFU,-24.05114,27.35921,,
A4MATL-WATER,-24.34522,27.56366,,
A4MATL-ZWART,-24.43339,27.56896,,
A4MOKO-ALMAB,-24.48592,28.0737,,
A4MOKO-DNYAL,-23.68747,27.74557,,
A4MOKO-GROEN,-24.32148,28.11745,,
A4MOKO-MARKE,-23.65215,27.75973,,
A4MOKO-MOKOL,-24.05798,27.79485,,
A4MOKO-STERK,-24.1861,27.9547,,
A4MOKO-TWEEF,-24.42723,28.1047,,
A4MOKO-VAALW,-24.28937,28.0924,,
A4MOKO-WITFO,-24.1137,27.80235,,
A4MOKO-WITKO,-23.84773,27.79033,,
A4MOKO-WWORK,-23.97067,27.72595,,
A4RIET-FANCY,-27.6463,23.87707,,
A4RIET-WATER,-27.65303,23.86487,,
A4SAND-LEEUW,-24.57707,28.29252,,
A4SAND-LOUBA,-24.58778,28.20522,,
A4SAND-TOPBR,-24.65283,28.2307,,
A4SAND-UPPER,-24.5345,28.34305,,
A4STER-DOORN,-24.19277,27.93795,,
A4STER-WELG1,-24.36445,27.80962,,
A4STER-WELG2,-24.30572,27.8971,,
A4STER-WELGE,-24.30554,27.89699,,
A4TAAI-TAAIB,-24.18546,27.86122,,
A4TAAI-WELG1,-24.26355,27.84038,,
A4TAAI-WELG2,-24.25918,27.83663,,
A4TAMB-10KMD,-23.83217,27.95279,,
A4TAMB-11KMD,-23.81291,27.94885,,
A50RIE-MAKOU,-24.2693,28.4324,,
A5BLOC-KLIP2,-23.9043,28.2524,,
A5BLOC-NEWBE,-23.855,28.271,,
A5BLOC-TAMBO,-23.8038,28.2694,,
A5BLOC-WILDE,-23.883,28.2701,,
A5DAGG-FRISC,-23.8825,28.3879,,
A5LEPH-ABBOT,-23.4624,28.0956,,
A5LEPH-BEAUT,-23.2181,27.8918,,
A5LEPH-BUFFE,-23.6155,28.119,,
A5LEPH-GOERG,-24.1143,28.4638,,
A5LEPH-HOUTB,-24.3369,28.5,,
A5LEPH-KROON,-23.5752,28.1215,,
A5LEPH-LEPOT,-23.8378,28.2917,,
A5LEPH-MELKR,-23.9941,28.4156,,
A5LEPH-MOERD,-23.8801,28.3365,,
A5LEPH-MOLOP,-23.8882,28.335,,
A5LEPH-VRISC,-24.3523,28.4775,,
A5LEPH-WELTE,-23.7232,28.2333,,
A5LEPH-WITPO,-23.328,27.9978,,
A5LEPH-WITWA,-24.0927,28.4767,,
A5RIET-MAKOU,-24.2693,28.4324,,
A7DWAR-MATOK,-23.4729,29.8034,,
A7SAND-BIRDS,-23.863,29.43,,
A8LUPH-UPPER,-22.7179,30.4293,,
A8NWAN-ADELA,-22.4093,30.5549,,
A8NWAN-CONFL,-22.6298,30.3999,,
A8NWAN-CROSS,-22.5141,30.4477,,
A8NWAN-FALLS,-22.6613,30.3749,,
A8NWAN-FOLOR,-22.471,30.4633,,
A8NWAN-POPAL,-22.348,30.5951,,
A8NWAN-UPPER,-22.7336,30.3841,,
A8NZHE-BAOBA,-22.47603,30.26488,,
A8NZHE-NYALA,-22.42628,30.27445,,
A8NZHE-RIVER,-22.42318,30.28407,,
A8NZHE-SCHOT,-22.49167,30.26337,,
A9DZIN-CROCV,-23.00633,30.4735,,
A9DZIN-FORES,-22.98417,30.33417,,
A9DZIN-TOPBR,-22.98917,30.31783,,
A9LATO-BOTHA,-23.05133,30.2345,,
A9LATO-CABBA,-23.0745,30.32117,,
A9LATO-KLEIN,-23.04869,30.23113,,
A9LATO-LISBO,-23.016,30.19056,,
A9LATO-SEVIL,-23.00722,30.19583,,
A9LATO-TIMBA,-23.02616,30.20227,,
A9LATO-VERAS,-23.01076,30.2234,,
A9LUVU-BEJAB,-23.09183,30.06717,,
A9LUVU-BOBOM,-22.41667,31.20833,,
A9LUVU-BOTS2,-22.7875,30.8485,,
A9LUVU-BOTS3,-22.7875,30.8485,,
A9LUVU-BOTS4,-22.7875,30.8485,,
A9LUVU-BOTSO,-22.7875,30.8485,,
A9LUVU-DONGO,-22.70917,30.88917,,
A9LUVU-GWEIR,-23.1085,30.38767,,
A9LUVU-HASAN,-23.084,30.46933,,
A9LUVU-LAMBA,-22.7365,30.88217,,
A9LUVU-MADZA,-22.49833,31.0595,,
A9LUVU-MALAM,-22.9525,30.649,,
A9LUVU-MANGA,-22.427,31.1745,,
A9LUVU-MHING,-22.753,30.88917,,
A9LUVU-MUTAL,-22.4445,31.076,,
A9LUVU-NANDO,-22.9715,30.60167,,
A9LUVU-ROBER,-23.103,30.34083,,
A9LUVU-SHEFE,-23.0333,30.08333,,
A9LUVU-SHIDZ,-23.6355,30.95833,,
A9LUVU-TSHIF,-22.84283,30.7515,,
A9LUVU-VALDE,-23.085,30.17133,,
A9MBWE-BRIDG,-22.83483,30.65717,,
A9MBWE-DAMAN,-22.843,30.51833,,
A9MUKH-CYCAD,-22.81033,30.64783,,
A9MUTA-BRIDG,-22.70067,30.639,,
A9MUTA-GUYUN,-22.586,30.80533,,
A9MUTA-MUTAL,-22.474,30.8805,,
A9MUTA-RIFFL,-22.80917,30.39117,,
A9MUTA-ROADS,-22.80417,30.41667,,
A9MUTA-SAMBA,-22.70067,30.639,,
A9MUTA-TSHIK,-22.67133,30.7015,,
A9MUTA-TSHIR,-22.80917,30.39117,,
A9MUTA-WHBON,-22.789,30.44267,,
A9MUTS-GAUGI,-22.85333,30.6855,,
A9MUTS-HYDRO,-22.93683,30.40067,,
A9MUTS-MALAV,-22.85667,30.6395,,
A9MUTS-PHIPI,-22.94333,30.4,,
A9MUTS-SCHOO,-22.88617,30.58683,,
A9MUTS-TSHIV,-22.909,30.48633,,
A9STER-ALBAS,-23.068,30.0675,,
A9TSHI-ABSAL,-22.75717,30.475,,
A9TSHI-BRIDG,-22.75717,30.475,,
A9TSHI-SECON,-22.71833,30.6505,,
B1BLES-BLESB,-25.836,29.215,,
B1BRUG-SCHOO,-25.887,29.153,,
B1DWAR-RIETF,-26.34455,29.21238,,
B1KIEP-PALM2,-26.44238,29.35315,,
B1KLIP-HARTB,-25.768,29.122,,
B1KLIP-ZAAIH,-25.679,29.169,,
B1KOLI-BANKF,-25.67358,29.31681,,
B1KOLI-DEGRO,-25.944,29.652,,
B1KOLI-DOORN,-25.669,29.335,,
B1KOLI-MIDDE,-25.752,29.461,,
B1KOLI-N2RBR,-25.8169,29.5964,,
B1KOLI-RONDE,-25.758,29.493,,
B1KOLI-TOEVL,-25.715,29.433,,
B1KOLI-WOEST,-25.91421,29.62978,,
B1KOLI-ZAAIP,-25.825,29.601,,
B1OLIF-AASVO,-25.758,29.318,,
B1OLIF-MIDDE,-26.221,29.46,,
B1OLIF-MOOIF,-25.821,29.294,,
B1OLIF-SLAGT,-25.599,29.21,,
B1OLIF-SNAAK,-25.632,29.218,,
B1OLIF-VAALK,-26.10697,29.32333,,
B1OLIF-VAND1,-26.09633,29.28827,,
B1OLIF-VANDY,-26.104,29.323,,
B1OLIF-ZEEK2,-25.841,29.267,,
B1OLIF-ZEEKO,-25.847,29.287,,
B1PIEK-PALMI,-26.44238,29.35315,,
B1RIET-FRISC,-26.18991,29.18616,,
B1RIET-VIERF,-26.21863,29.12366,,
B1SPOO-GOEDE,-25.89094,29.42222,,
B1SPOO-RIETF,-25.85905,29.3913,,
B1STEE-AANGL,-26.32722,29.28705,,
B1STEE-MIDDE,-26.13733,29.26986,,
B1STEE-ONVER,-26.29602,29.26486,,
B1STEE-RIETB,-26.24752,29.44148,,
B1STEE-STEEN,-26.09269,29.23861,,
B1TRIC-HOLFO,-26.45915,29.21928,,
B1TRIC-RIETF,-26.34466,29.21638,,
B1TRIC-TRICH,-26.49389,29.23874,,
B1UNSP-GOED6,-26.08288,29.04888,,
B1UNSP-PALM3,-26.47163,29.36596,,
B1VAAL-DOWNS,-25.78983,29.48336,,
B1VAAL-UPSTR,-25.82358,29.48978,,
B2BRON-KLIPE,-25.828,28.717,,
B2BRON-ROOIP,-25.952,28.69,,
B2BRON-VLAKF,-25.864,28.708,,
B2BRON-WAAIK,-26.01,28.677,,
B2HOND-HOND1,-25.7967,28.7179,,
B2UNSP-DWAAL,-26.00233,28.88569,,
B2UNSP-KORTF,-25.87852,28.86672,,
B2WILG-BOOYZ,-25.58,29.171,,
B2WILG-BOSSE,-25.903,28.852,,
B2WILG-DCONV,-26.30709,28.82817,,
B2WILG-DWAAL,-26.011,28.87,,
B2WILG-IFR04,-25.61994,28.99883,,
B2WILG-KLIPF,-25.751,28.958,,
B2WILG-KRANS,-25.622,29,,
B2WILG-SPITZ,-25.781,28.886,,
B2WILG-UCONV,-26.3085,28.82807,,
B2WILG-WASCH,-25.751,28.958,,
B3ELAN-DETWE,-25.551,28.568,,
B3ELAN-DOORN,-25.575,28.577,,
B3ELAN-FAIRF,-25.433,28.578,,
B3ELAN-RHENO,-25.115,28.957,,
B3ELAN-ROOIK,-25.189,28.63,,
B3ELAN-SPRIN,-25.408,28.569,,
B3ELAN-UITVL,-25.303,28.464,,
B3KRAN-ZEEKO,-25.4376,29.4758,,
B3KRUI-DIEPK,-25.36655,29.6186,,
B3MOSE-DENNI,-25.272,29.181,,
B3MOSE-GROEN,-25.159,29.328,,
B3OLIF-DEWAG,-25.371,29.395,,
B3OLIF-DONKE,-25.511,29.265,,
B3OLIF-GROBL,-25.16167,29.41417,,
B3OLIF-KABEL,-25.555,29.214,,
B3OLIF-LOSKO,-25.4,29.368,,
B3OLIF-LOSNR,-25.49567,29.25411,,
B3OLIF-VARKE,-25.049,29.414,,
B3SELO-AVONT,-25.43373,29.52858,,
B3SELO-DEWAG,-25.3703,29.39929,,
B3SELO-KRUIS,-25.384,29.454,,
B4BEET-WATER,-24.957,30.302,,
B4DORP-ELAND,-25.28812,30.245,,
B4DORP-LANGE,-25.11066,30.44263,,
B4DORP-LASKE,-25.11388,30.4403,,
B4DORP-LYDEN,-25.08917,30.44889,,
B4DORP-WEMM1,-25.22361,30.34056,,
B4DWAR-DWARS,-24.96141,30.08844,,
B4DWAR-R555D,-24.84187,30.08653,,
B4DWAR-R555U,-24.84412,30.09175,,
B4EAST-CONFL,-25.12117,30.16227,,
B4EAST-DEKDS,-25.14717,30.16925,,
B4EAST-DEKUS,-25.15933,30.17298,,
B4KDWA-DWAR2,-24.93488,30.10008,,
B4KDWA-DWAR4,-24.92597,30.10166,,
B4KDWA-RICHM,-24.98569,30.0813,,
B4KLIP-R555B,-24.96242,29.95533,,
B4KLIP-UPPER,-24.97822,29.96775,,
B4LAKE-LANGK,-25.62647,30.00056,,
B4MASE-EAGLE,-25.01708,29.87332,,
B4MASE-OLIFA,-25.01037,29.85828,,
B4MOOP-MOOPE,-24.62933,30.19225,,
B4SPEK-BURGE,-24.66037,30.33702,,
B4SPEK-DEBAD,-24.83877,30.389,,
B4SPEK-FINSB,-25.0336,30.54815,,
B4SPEK-LEIDE,-25.009,30.5,,
B4STEE-AAPIE,-24.92247,29.97128,,
B4STEE-BRIDGE,-24.71795,30.20325,,
B4STEE-BUFFE,-25.0331,29.85153,,
B4STEE-BURGE,-24.65889,30.3025,,
B4STEE-DEHOO,-24.95,29.966,,
B4STEE-EERST,-24.749,30.161,,
B4STEE-FRAAI,-24.68,30.263,,
B4STEE-ONVER,-25.17698,29.84638,,
B4STEE-PRETO,-24.495,30.4,,
B4STEE-STEEL,-24.893,30.017,,
B4STEE-STOFF,-25.38194,29.83833,,
B4STEE-TIGER,-25.10112,29.84728,,
B4STEE-WAPAD,-25.57975,29.87573,,
B4STER-LYDEN,-25.1583,30.5461,,
B4STRI-LYDEN,-25.17694,30.54028,,
B4UNSP-PAAR2,-25.08392,30.57498,,
B4UNSP-PAARD,-25.09297,30.56606,,
B4UNSP-UNSPL,-25.013,30.30638,,
B4WATE-HADED,-24.89133,30.31068,,
B4WATE-TWEEF,-24.97008,30.2178,,
B4WTRI-BEETG,-25.03833,30.29413,,
B5OLIF-ADRIA,-24.527,29.546,,
B5OLIF-B5H002,-24.26667,29.80083,,
B5OLIF-DIAMA,-24.283,29.76,,
B5OLIF-MOGAL,-24.73472,29.42556,,
B5OLIF-ROODE,-24.775,29.423,,
B5OLIF-VANDE,-24.674,29.461,,
B5OLIF-VEEPL,-24.498,29.57,,
B6BELV-BELVE,-24.654,30.837,,
B6BLYD-BLYDE,-24.40517,30.79912,,
B6BLYD-ESSEX,-24.325,30.832,,
B6BLYD-GROOT,-24.93298,30.74823,,
B6BLYD-MORIA,-24.409,30.827,,
B6BLYD-PILGR,-24.87775,30.76038,,
B6BLYD-PILRE,-24.89694,30.75056,,
B6BLYD-PONIE,-24.911,30.735,,
B6BLYD-VAALH,-24.73478,30.77825,,
B6GROO-GROOT,-24.95433,30.76328,,
B6HEDD-R532B,-24.86173,30.84745,,
B6HEDD-R534B,-24.85367,30.89008,,
B6KGWE-KASPE,-24.73903,30.71078,,
B6LISB-BRIDG,-24.83,30.79,,
B6OHRI-BLYDE,-24.538,30.766,,
B6OHRI-KRANS,-24.891,30.598,,
B6OHRI-OHRIG,-24.954,30.631,,
B6TREU-CLEAR,-24.75367,30.87215,,
B6TREU-R532B,-24.709,30.818,,
B7GASE-ERMEL,-23.9915,30.68333,,
B7GASE-FOSKO,-23.97667,31.07361,,
B7GASE-MIDDL,-24.161,30.254,,
B7GASE-OCONF,-24.037,31.134,,
B7GASE-RANCH,-23.9726,30.7196,,
B7GASE-SCHEL,-24.13923,30.32013,,
B7KLAS-EDEN,-24.579,30.941,,
B7KLAS-GUERN,-24.497,31.088,,
B7MAKH-LEKGA,-24.191,30.349,,
B7MOHL-BADEN,-24.096,30.101,,
B7MOHL-GEMIN,-24.168,30.106,,
B7MOHL-MAFEF,-24.191,30.096,,
B7MOHL-VALLI,-24.126,30.114,,
B7MOHL-WATER,-24.062,30.031,,
B7MOHL-WOLKB,-24.103,30.119,,
B7MOTL-GELDE,-24.59722,30.94136,,
B7MOTL-MAGAL,-24.59288,30.92322,,
B7OLIF-BALDS,-24.035,31.738,,
B7OLIF-BALUL,-24.0527,31.73002,,
B7OLIF-BAZAI,-24.30918,30.77744,,
B7OLIF-FOCHA,-24.424,30.555,,
B7OLIF-GRIET,-24.126,31.017,,
B7OLIF-HOEDS,-24.1842,30.8358,,
B7OLIF-MAMBA,-24.044,31.221,,
B7OLIF-OXFOR,-24.222,30.818,,
B7OLIF-PENGE,-24.353,30.306,,
B7OLIF-PHOSA,-24.2571,30.8273,,
B7OLIF-PLAAT,-24.221,29.878,,
B7OLIF-R36BR,-24.38013,30.66665,,
B7OLIF-STELL,-24.238,30.082,,
B7OLIF-VYGEB,-24.034,31.566,,
B7OLIF-ZEEKG,-24.069,31.149,,
B7TONG-BEWAA,-24.088,29.863,,
B8BROE-BRIDG,-23.82417,30.008,,
B8GLET-APPLE,-23.91493,30.05218,,
B8GLET-GIYBR,-23.68348,30.6102,,
B8GLET-IFR16,-23.67917,31.1,,
B8GLET-JANET,-23.75381,30.49255,,
B8GLET-LETR3,-23.65,31.04167,,
B8GLET-MEREN,-23.64923,30.6604,,
B8GLET-MTUMI,-23.91467,30.05138,,
B8GLET-NAGUD,-23.79167,30.46667,,
B8GLET-NKOWA,-23.87267,30.2715,,
B8GLET-NONDW,-23.6875,30.86717,,
B8GLET-PRIES,-23.64767,30.71683,,
B8GLET-SLABW,-23.65833,30.98333,,
B8GLET-VERGE,-23.88708,30.07703,,
B8GLET-YAMOR,-23.8388,30.21787,,
B8KLET-BENDS,-23.29567,30.622,,
B8KLET-BRIDG,-23.26,30.3705,,
B8KLET-CANAL,-23.2495,30.49467,,
B8KLET-GIYAN,-23.3495,30.73683,,
B8KLET-HLANE,-23.2805,30.54317,,
B8KLET-KREME,-23.3195,30.67333,,
B8KLET-MAJOS,-23.23067,30.27933,,
B8KLET-SINGL,-23.48667,31.04383,,
B8KLET-SOUTI,-23.41783,30.91617,,
B8KLET-VUHEL,-23.4275,30.87667,,
B8LETS-CRAIG,-23.97417,30.16583,,
B8LETS-TANKB,-23.88333,30.26667,,
B8MOLO-BRIDG,-23.51167,30.41667,,
B8MOLO-DZUME,-23.57083,30.74833,,
B8MOLO-MODJA,-23.59917,30.33417,,
B8MOLO-SEKHI,-23.43767,30.54667,,
B8NSAM-BANAN,-23.28917,30.82417,,
B8NSAM-YOUTH,-23.35517,30.91517,,
B8POLI-KINGF,-23.8205,30.06,,
B8POLI-RANA,-23.88217,30.01717,,
B8THAB-RAMOD,-24.0255,30.16917,,
BIVAAL-UPSTR,-25.8238,29.48977,,
C1BANK-SPRING,-26.53842,29.01164,,
C1BRAK-BRAKS,-26.9363,29.16977,,
C1BRAK-KAFFE,-26.90672,29.18301,,
C1EVAN-GOEDV,-26.51264,29.09306,,
C1EVAN-WINKE,-26.502,29.10489,,
C1GROO-WITKL,-26.51083,29.05731,,
C1KAAP-ROODE,-26.6035,28.99894,,
C1KLEI-UPPER,-26.91275,30.17497,,
C1KLIP-STAND,-27.17444,29.23611,,
C1KLIP-UKLIP,-27.82066,29.64955,,
C1KLIP-UPPE1,-27.36166,29.48502,,
C1KLIP-UPPER,-27.36166,29.48502,,
C1KLIP-VOLKS,-27.33694,29.60028,,
C1SKUL-UPPER,-27.03072,29.88855,,
C1TRIB-KROMD,-26.44275,29.0325,,
C1VAAL-GLAD1,-26.99086,28.72883,,
C1VAAL-GLADD,-26.99086,28.72883,,
C1VAAL-GROO2,-26.9211,29.2793,,
C1VAAL-GROOT,-26.92111,29.2793,,
C1VAAL-NEYS1,-26.84263,28.11233,,
C1VAAL-NEYS2,-26.84263,28.11233,,
C1VAAL-SCAN1,-26.93241,27.01366,,
C1VAAL-UITK1,-23.8728,29.61383,,
C1VAAL-UITKO,-26.8728,29.61383,,
C1VAAL-VILLI,-27.02361,28.59444,,
C1WATE-KLIPF,-26.45058,28.96739,,
C1WATE-ROODE,-26.62689,29.02408,,
C1WATE-SPRING,-26.53311,29.02644,,
C1WATE-UPPE1,-26.96027,28.74577,,
C1WATE-UPPER,-26.96027,28.74577,,
C2BLES-UPPE1,-26.47883,28.42505,,
C2BLES-UPPE2,-26.47883,28.42505,,
C2KLIP-SLANG,-26.54934,28.06435,,
C2KROM-AVAAL,-26.81139,27.57444,,
C2KROM-DOWNS,-26.79594,28.40672,,
C2KROM-UPPER,-26.79594,27.5655,,
C2LEEU-DAVON,-26.45475,27.60411,,
C2LEEU-SASOL,-26.80222,27.79889,,
C2LKIP-ZWART,-26.38118,28.07168,,
C2LOOP-DOORN,-26.43161,27.55266,,
C2LOOP-KLIPD,-26.61897,27.29742,,
C2LOOP-KOKOS,-26.49983,27.45889,,
C2LOOP-WELTE,-26.47942,27.53894,,
C2MOOI-KLERK,-26.25864,27.15967,,
C2MOOI-MEULS,-26.68211,27.09822,,
C2MOOI-MOOIR,-26.7045,27.10633,,
C2MOOI-OUDED,-26.57219,27.10311,,
C2MOOI-POTC1,-26.70435,27.10625,,
C2MOOI-ROOID,-26.36003,27.139,,
C2MOOI-RYSMI,-26.51453,27.12444,,
C2OOGG-OOGGE,-26.47922,27.15164,,
C2RIET-RIETS,-26.42917,28.16061,,
C2SKOO-ELAND,-26.37111,26.78606,,
C2SKOO-GHOLF,-26.32598,26.82864,,
C2SKOO-HARTB,-26.67483,26.58461,,
C2SKOO-RIETS,-26.42688,26.73594,,
C2SKOO-STERK,-26.46352,26.67435,,
C2SKOO-URANI,-26.93449,26.66427,,
C2SKOO-VENTE,-26.31178,26.83761,,
C2SUIK-BADFO,-26.68122,28.05011,,
C2SUIK-BLES1,-26.64669,28.38197,,
C2SUIK-BLESB,-26.64669,28.38197,,
C2SUIK-DEHOE,-26.64672,28.38197,,
C2SUIK-GOEDV,-26.67547,28.17314,,
C2SUIK-UPPE1,-26.68136,28.16737,,
C2SUIK-UPPE2,-26.68136,28.16737,,
C2TAAI-SASOL,-26.79472,27.90708,,
C2VAAL-BARRA,-26.76861,27.67806,,
C2VAAL-DENEY,-26.87444,28.11639,,
C2VAAL-ELGRO,-26.92689,27.18508,,
C2VAAL-EUR12,-26.9363,26.8499,,
C2VAAL-EUR13,-27.10413,26.52185,,
C2VAAL-EUR14,-27.4412,26.98574,,
C2VAAL-ORKNE,-27.01444,26.69333,,
C2VAAL-PARYS,-26.90142,27.44628,,
C2VAAL-SCAND,-26.93241,27.01366,,
C2VAAL-STONE,-26.90219,27.38889,,
C2VAAL-USPAR,-26.8925,27.46611,,
C2VAAL-VERMA,-26.93632,26.8503,,
C2YSTE-ORKNY,-27.05583,26.54306,,
C3BLUE-NORLI,-27.61999,24.63739,,
C3HART-CANAL,-27.8031,24.70939,,
C3HART-DELPO,-28.37694,24.30305,,
C3HART-ESPAG,-27.69778,24.73236,,
C3HART-HARTS,-27.80319,24.70939,,
C3HART-HOSPI,-27.54131,24.79161,,
C3HART-LEEUS,-26.61188,25.66356,,
C3HART-MOTSW,-27.69618,24.67699,,
C3HART-PAMPI,-27.7867,24.70485,,
C3HART-SANNI,-26.55767,25.7925,,
C3HART-TASUN,-27.57335,24.7441,,
C3HART-TAUNG,-27.5333,24.85443,,
C3HART-TOLGA,-27.5404,24.8248,,
C3HART-WELGE,-26.64374,25.61631,,
C3VAAL-EUR17,-28.38028,24.3011,,
C4GVET-VDRIE,-28.71222,26.95917,,
C4KVET-VVIER,-28.61889,27.01639,,
C4SAND-N1ROA,-28.23306,27.0875,,
C4SAND-STAAL,-28.12333,26.58528,,
C4SAND-STOOM,-28.32167,27.49139,,
C4VETR-ERFEN,-28.46333,26.34528,,
C4VETR-HOOPS,-27.935,26.12583,,
C5BOKR-RUSTF,-29.37417,26.57083,,
C5FOUR-KALKF,-29.66944,26.07239,,
C5GANN-CMODD,-29.45444,26.73472,,
C5KLEI-BOTSH,-29.25,26.6575,,
C5KMOD-BOTSH,-29.25389,26.65583,,
C5KORA-MOCK2,-29.08083,26.59139,,
C5KORA-MOCKE,-29.08028,26.59333,,
C5KROM-CRIET,-29.65361,25.435,,
C5MODD-CONFL,-29.02833,24.63833,,
C5MODD-DEWET,-29.59028,26.70694,,
C5MODD-GLENS,-28.84917,26.18667,,
C5MODD-KRUGE,-28.88667,25.95528,,
C5MODD-MODDE,-28.02889,24.505,,
C5MODD-PERD2,-28.99306,25.08056,,
C5MODD-SANNA,-29.16111,26.57194,,
C5MODD-SOETD,-28.80722,26.10694,,
C5OSSP-MOCKE,-28.97639,26.47,,
C5RENO-BISHO,-28.96667,26.31917,,
C5RENO-BLOEM,-28.96694,26.33222,,
C5RIET-EWR09,-30.11083,25.84972,,
C5RIET-IFR01,-29.02778,24.51306,,
C5RIET-IFR03,-29.57583,25.70972,,
C5RIET-JACOB,-29.09972,24.69889,,
C5RIET-KOFFI,-29.41944,24.90861,,
C5SEPA-SEPAN,-29.16306,26.59528,,
C5SEPA-THABA,-29.16333,26.59503,,
C5TIER-TIERP,-29.50389,25.94722,,
C5VAAL-EUR18,-29.02723,24.51294,,
C5VANZ-DWNWR,-30.11167,25.84972,,
C6VALS-BETLE,-28.12472,28.11111,,
C6VALS-LINDL,-27.86444,27.67833,,
C6VALS-PROKL,-27.48694,26.67944,,
C7HEUN-RENOS,-27.17222,27.25,,
C7RENO-KOPPI,-27.26639,27.53139,,
C7RENO-R501B,-27.06944,27.04444,,
C8ASHR-CLARE,-28.45639,28.41194,,
C8ASRV-MIDDE,-28.37917,28.365,,
C8BEDF-CRANE,-28.23652,29.59424,,
C8BEDF-DDRIF,-28.22576,29.55115,,
C8BOBB-BOTJH,-28.5189,28.81005,,
C8CORN-UPST1,-27.83822,29.35922,,
C8CORN-UPSTR,-27.83822,29.35922,,
C8GROO-UPPER,-27.51669,28.84838,,
C8GROO-UPSTR,-27.51669,28.84838,,
C8HOLS-UPPER,-27.68016,28.79288,,
C8KLIP-VAALD,-27.2475,28.22611,,
C8KROM-UPPER,-27.25783,28.40672,,
C8LIEB-DEMOL,-27.70056,28.2725,,
C8LIEB-MAFAH,-27.53111,28.47556,,
C8LIEB-TWEEL,-27.53083,28.47556,,
C8LIEB-WOODF,-27.99417,28.31667,,
C8MEUL-UPPE1,-27.08358,28.89911,,
C8MEUL-UPPER,-27.97461,29.31991,,
C8MEUL-UPPUR,-27.93139,29.53056,,
C8NAMA-FIKAP,-28.66782,28.8549,,
C8NAMA-GOLFC,-28.49778,28.82803,,
C8NAMA-LIMES,-28.65368,28.85147,,
C8NAMA-MAKWA,-28.5431,28.84933,,
C8NAMA-MOEDI,-28.61565,28.8364,,
C8NUWE-CONFL,-28.28472,29.08417,,
C8NUWE-LANGK,-28.51536,28.97981,,
C8WILG-BELWH,-27.90333,28.8075,,
C8WILG-FRANK,-27.28833,28.45,,
C8WILG-UPPE1,-27.80016,28.76777,,
C8WILG-UPPE2,-27.80016,28.76777,,
C8WILG-UPPER,-28.1993,29.5595,,
C9VAAL-CHRIS,-27.95299,25.14791,,
C9VAAL-DELPO,-28.41847,24.29047,,
C9VAAL-DOUGL,-29.05339,23.79392,,
C9VAAL-DOUGW,-29.04475,23.83622,,
C9VAAL-EUR16,-27.65541,25.59564,,
C9VAAL-EUR19,-28.7048,24.07603,,
C9VAAL-GONGG,-28.48797,24.40919,,
C9VAAL-SCHM1,-28.61986,24.10164,,
C9VAAL-SCHM2,-28.60536,24.11108,,
C9VAAL-SCHMI,-28.71169,24.07258,,
C9VAAL-SEWAG,-28.11419,24.83958,,
C9VAAL-VAALB,-28.45019,24.32617,,
C9VAAL-WARRE,-28.10728,24.83986,,
C9VAAL-WARSU,-28.11583,24.83583,,
C9VAAL-WINDO,-28.31932,24.43,,
C9VAAL-WVALE,-28.07,25.04,,
D1BOKO-B030P,-29.22975,28.35902,,
D1BOKO-B3PNT,-29.3508,28.11716,,
D1BOKO-B4PNT,-29.32661,28.11433,,
D1BOKO-B5PNT,-28.32297,28.11211,,
D1BOKO-B6PNT,-29.30161,28.10544,,
D1BOKO-B7PNT,-29.29377,28.11225,,
D1BOKO-B8PNT,-29.27636,28.12186,,
D1BOKO-BO10P,-29.27775,28.38197,,
D1BOKO-BO20P,-29.25988,28.37611,,
D1BOKO-BO40P,-29.21225,28.35627,,
D1BOKO-G01PT,-29.13433,28.3445,,
D1JORO-J6PNT,-29.3873,28.04583,,
D1JORO-J7PNT,-29.36672,28.03486,,
D1JORO-J8PNT,-29.35672,28.03469,,
D1MALI-B28PT,-29.04908,28.53322,,
D1MALI-B30PT,-29.0258,28.54366,,
D1MALI-KMA10,-29.07013,28.52691,,
D1MALI-KMA20,-29.05788,28.53166,,
D1MALI-MA70P,-29.01988,28.54813,,
D1MALI-MA75P,-29.00308,28.54261,,
D1MALI-MA78P,-28.93944,28.55994,,
D1MALI-MA80P,-28.89702,28.56297,,
D1MOTE-MO10P,-28.97355,28.57541,,
D1ORAN-HERSC,-30.48306,27.23333,,
D1ORAN-ORANJ,-30.33778,27.36278,,
D1PELA-KPE40,-29.04033,28.45797,,
D1PELA-PE10P,-29.08358,28.49597,,
D1PELA-PE20P,-29.07875,28.48133,,
D1PELA-PE30P,-29.06197,28.46402,,
D1PELA-PE50P,-29.02972,28.46258,,
D1RAPO-JT10P,-29.37066,28.02422,,
D1SENQ-S22PT,-29.36902,28.18094,,
D1SENQ-S24PT,-29.35733,28.18819,,
D1SENQ-S25PT,-29.33838,28.20436,,
D1SENQ-S28PT,-29.30063,28.2365,,
D1SENQ-S29PT,-29.29288,28.24836,,
D1SENQ-S34PT,-29.22602,28.27422,,
D1UNSP-ST10P,-29.35697,28.19022,,
D2CALE-EWR03,-28.72222,28.15083,,
D2CALE-JIMFO,-29.71083,26.98583,,
D2CALE-LADYB,-27.37778,27.40944,,
D2CALE-LOWER,-30.45383,26.27275,,
D2CALE-TUSSE,-30.4275,26.30556,,
D2CALE-UPPER,-28.6501,28.38733,,
D2CALE-WEIRF,-29.61556,27.06528,,
D2CALE-WELBE,-29.91083,26.85917,,
D2GROO-FARM1,-28.68056,28.13972,,
D2GROO-FARM2,-28.73583,28.11167,,
D2LCAL-EWR01,-28.52694,28.48306,,
D2LEEU-EWR06,-29.52167,27.13583,,
D2MEUL-FARM1,-28.72972,27.80944,,
D2MOPE-WATER,-29.035,27.56917,,
D3KRAA-KRAAI,-30.8258,26.92102,,
D3ORAN-HOPET,-29.60004,24.08778,,
D3ORAN-VANDE,-29.57639,24.07417,,
D4MOLO-ASLAA,-25.85531,25.68011,,
D4MOLO-BOSBP,-25.87305,26.00886,,
D4MOLO-BUHRM,-25.85117,25.80908,,
D4MOLO-FLOWG,-25.88288,26.02025,,
D4MOLO-LOMAN,-25.87436,25.62456,,
D4MOLO-MAFIK,-25.87494,25.63994,,
D4MOLO-MODIM,-25.85936,25.44972,,
D4MOLO-WEIRD,-25.88161,26.01813,,
D4MOSH-SETHA,-27.11381,23.91939,,
D7ORAN-6ROBL,-28.86658,22.04244,,
D7ORAN-BOEGB,-29.00547,22.16225,,
D7ORAN-GIFKL,-28.42844,21.40003,,
D7ORAN-GROBL,-28.99886,22.17606,,
D7ORAN-KAKAM,-28.77686,20.73969,,
D7ORAN-KANON,-28.63594,21.09061,,
D7ORAN-KEIMO,-28.72806,20.98547,,
D7ORAN-NEUSB,-28.77672,20.73986,,
D7ORAN-PRIES,-29.66117,22.75564,,
D7ORAN-UPING,-28.45256,21.25992,,
D8ORAN-BLOUP,-28.51061,20.172,,
D8ORAN-GOODH,-28.90742,18.20825,,
D8ORAN-ONSEE,-28.74072,19.3305,,
D8ORAN-PELLA,-28.96411,19.14531,,
D8ORAN-RICHT,-28.07772,16.94428,,
D8ORAN-SENDD,-28.16914,16.88914,,
D8ORAN-SENDU,-28.10722,16.88319,,
D8ORAN-VIOOL,-28.76211,17.72633,,
E1BOON-BRIDG,-32.56722,19.00972,,
E1BOON-CITRU,-32.82278,19.11667,,
E1BOON-R303B,-32.63062,19.06967,,
E1JAND-BRIDG,-32.173,18.9,,
E1JAND-SWEMG,-32.20898,18.97558,,
E1NOOR-OFFTA,-32.72008,19.06677,,
E1OLIF-ALGER,-32.36556,18.95417,,
E1OLIF-BOSCH,-32.975,19.18389,,
E1OLIF-BULSH,-31.99111,18.79,,
E1OLIF-CITRU,-32.58,19,,
E1OLIF-CLANW,-32.1732,18.87083,,
E1OLIF-GROOT,-32.88722,19.09444,,
E1OLIF-KEERO,-32.85,19.085,,
E1OLIF-KRIED,-32.36528,18.95278,,
E1OLIF-LANGK,-32.04777,18.82273,,
E1OLIF-MACGR,-32.75167,19.05,,
E1OLIF-SOURC,-33.15917,19.23556,,
E1OLIF-TWEEF,-32.65027,19.0152,,
E1OLIF-VISGA,-33.07694,19.21639,,
E1OLIF-WWTW5,-32.54,18.98361,,
E1OLIF-ZYPHE,-31.92395,18.68493,,
E1RATE-BEAVE,-32.90542,19.0692,,
E1ROND-ALGER,-32.37361,19.05833,,
E1ROND-BRIDG,-32.37028,19.05583,,
E1ROND-CANYO,-32.25917,18.95194,,
E1ROND-KEURB,-32.26611,18.9725,,
E1ROND-MEADO,-32.29389,18.99778,,
E1ROND-ROCKF,-32.36806,19.05306,,
E1ROND-ROOID,-32.27778,18.97944,,
E1ROND-UITKY,-32.39556,19.08972,,
E1TEER-AWEIR,-32.56655,19.05122,,
E1TEER-BOSCH,-32.55842,19.05957,,
E1TEER-DWEIR,-32.56855,19.05088,,
E1TEER-INTER,-32.5606,19.05685,,
E1TEER-ORCHA,-32.56258,19.05448,,
E1UITK-UITKY,-32.39833,19.09,,
E2BIED-CAUSE,-32.04717,19.40753,,
E2BIED-WELBE,-32.15325,19.1865,,
E2BOON-BILLB,-32.11,19.11722,,
E2BOON-MAINS,-32.12,19.10806,,
E2BOON-ROADB,-32.0975,19.117,,
E2BOON-TRACT,-32.0975,19.10472,,
E2BRAN-TRAVE,-32.07064,19.07584,,
E2BRAN-VOGEL,-32.56528,19.35833,,
E2DORI-ATANK,-32.31222,19.54806,,
E2DORI-BIEDO,-32.04086,19.40867,,
E2DORI-DEBRU,-31.865,18.68667,,
E2DORI-DORIN,-31.97333,19.22333,,
E2DORI-OUDRI,-31.85806,18.90861,,
E2DORI-TANKW,-32.31,19.55,,
E2GROO-DEMOD,-32.54239,19.54361,,
E2GROO-DEMON,-32.54717,19.5294,,
E2GROO-EWR06,-32.64861,19.40833,,
E2GROO-LEEUW,-32.82167,19.31444,,
E2HOUD-MORES,-33.00706,19.49681,,
E2KRUI-ELAND,-33.175,19.33639,,
E2LEEU-GAUGE,-32.77986,19.28344,,
E2MATJ-MATJI,-32.51861,19.35056,,
E2MATJ-SANDD,-32.4875,19.26806,,
E2RIET-KATBA,-32.89939,19.53828,,
E2SUUR-SUIKE,-32.65922,19.22536,,
E2TANK-ELAND,-32.31433,19.55997,,
E2TRAT-WUPPE,-32.27097,19.22439,,
E2TWEE-DEDRI,-32.66902,19.23922,,
E2TWEE-DEHOE,-32.67522,19.21083,,
E2TWEE-EERST,-32.67061,19.24331,,
E3HANT-R27RO,-31.32062,19.11798,,
E3HOLR-BOESM,-31.55308,18.4085,,
E3OLIF-BOTHA,-31.64,18.45,,
E3OLIF-KLAWE,-31.76944,18.61111,,
E3OLIF-KLAWT,-31.77142,18.61382,,
E3OLIF-LUTZV,-31.5651,18.32748,,
E3OLIF-N7ROA,-31.838,18.625,,
E3OLIF-VREDE,-31.69,18.5,,
E3SOUT-N7BRI,-31.39677,18.66383,,
E3WIED-VANRY,-31.6874,18.69102,,
E4KOEB-DEHOO,-31.64786,19.05497,,
E4OORL-NIEUW,-31.45028,19.15861,,
G1ASSE-FRANS,-33.96944,19.07778,,
G1BELL-BELLI,-33.88528,19.02139,,
G1BERG-BRBM1,-33.95556,19.07361,,
G1BERG-BRIDG,-33.10556,18.83889,,
G1BERG-CECIL,-33.76389,18.9705,,
G1BERG-DALJO,-33.73056,18.975,,
G1BERG-DEWDA,-33.9,19.05278,,
G1BERG-DRIEH,-33.13056,18.86111,,
G1BERG-FORES,-33.96563,19.07153,,
G1BERG-FRANS,-33.97778,19.06667,,
G1BERG-GOEDV,-33.25556,18.95278,,
G1BERG-HERMO,-33.43333,18.95556,,
G1BERG-JIMFO,-33.87917,19.03333,,
G1BERG-KERSE,-32.90278,18.32778,,
G1BERG-LADYL,-33.63056,18.975,,
G1BERG-PIKET,-32.97083,18.73611,,
G1BERG-SANDD,-32.93,18.679,,
G1BERG-SKUIF,-33.8915,19.04922,,
G1BERG-THEE2,-33.94306,19.075,,
G1BERG-ZONQU,-33.325,18.987,,
G1BOES-BANGH,-32.76567,18.64505,,
G1BOES-KAPTE,-32.7743,18.58187,,
G1BOES-VELDR,-32.84417,18.567,,
G1DRAK-WEMME,-33.80775,19.077,,
G1DWAR-GWEIR,-33.94733,18.9688,,
G1DWAR-KYLEM,-33.91242,18.94392,,
G1DWAR-RHODE,-33.86806,18.98611,,
G1FRAN-LAPROV,-33.90139,19.08889,,
G1HUGO-DEKKE,-33.74623,19.06403,,
G1HUGO-PAARL,-33.72122,18.99378,,
G1KLEI-BERGP,-33.208,19.155,,
G1KLEI-GWEIR,-33.31563,19.07628,,
G1KLEI-NUWEJ,-33.305,19.065,,
G1KLEI-R44BR,-33.21857,18.97433,,
G1KLEI-TWEEJ,-33.28,19.105,,
G1KROM-ABIBT,-33.6224,19.08483,,
G1KROM-BEIBT,-33.6224,19.08483,,
G1KROM-DOOLH,-33.62317,19.0843,,
G1KROM-GROEN,-33.6275,19.02535,,
G1KROM-MATJI,-33.01944,18.83472,,
G1LEEU-BRIDG,-33.31138,19.11177,,
G1LITT-DOWNS,-33.90333,19.01611,,
G1LITT-UPSTR,-33.90333,19.01444,,
G1MAAT-GWEIR,-33.04722,18.83194,,
G1OLIF-ABRID,-33.83748,19.111,,
G1PLAT-GOEDV,-32.86467,18.67928,,
G1SOUT-HAZEK,-33.01944,18.36389,,
G1SOUT-HOPEF,-33.01077,18.36333,,
G1TWEN-AWEIR,-33.13502,19.06253,,
G1TWEN-BWEIR,-33.13433,19.05983,,
G1TWEN-HALMA,-33.15556,18.97778,,
G1WATE-AWEIR,-33.35683,19.11583,,
G1WATE-CONFL,-33.89861,19.02139,,
G1WEMM-WEMME,-33.85417,19.03889,,
G2BAVI-FISHE,-34.04307,18.35763,,
G2BAVI-HOTEL,-34.04307,18.35979,,
G2BAVI-USRES,-34.0417,18.36862,,
G2BIGL-DSSRB,-34.01,18.52222,,
G2BIGL-USZEE,-34.02,18.52,,
G2BLAC-CANAL,-33.95306,18.53806,,
G2BLAU-BLAU1,-33.97389,18.85056,,
G2BLAU-BLAU2,-33.97389,18.85056,,
G2BLAU-BLAU3,-33.97389,18.85056,,
G2BLAU-BLAU4,-33.97389,18.85056,,
G2BLAU-DONIE,-33.98,18.87,,
G2BLAU-R44RO,-33.97,18.79,,
G2BOKR-DSKRB,-34.13338,18.34613,,
G2BOKR-RASTA,-34.15,18.35,,
G2BOKR-USKRB,-34.14556,18.34613,,
G2BONT-SOVER,-33.96,18.83,,
G2BOTT-BOTFO,-33.88528,18.74361,,
G2BOTT-BRIDG,-33.90194,18.72083,,
G2BOTT-DAMAN,-33.91611,18.68583,,
G2BOTT-DOWNS,-33.89722,18.73111,,
G2BOTT-DSBRID,-33.92703,18.69008,,
G2BOTT-OPENA,-33.91389,18.69444,,
G2BOTT-SKOOL,-33.92,18.68,,
G2BOTT-UAMAN,-33.91583,18.68861,,
G2CECI-CECIL,-33.99722,18.41944,,
G2DIEP-ABBOT,-33.48917,18.67806,,
G2DIEP-ALPHE,-34.01306,18.45056,,
G2DIEP-CAMPG,-33.46278,18.72,,
G2DIEP-CONFL,-33.67778,18.60417,,
G2DIEP-DOORD,-34.01972,18.46028,,
G2DIEP-KALBA,-33.58333,18.64722,,
G2DIEP-KILLA,-33.825,18.52,,
G2DIEP-MALME,-33.47667,18.70917,,
G2DIEP-MTOWN,-33.46662,18.72823,,
G2DIEP-N7BRI,-33.80806,18.525,,
G2DIEP-NOOIT,-33.63472,18.62778,,
G2DIEP-PAARD,-33.47733,18.7989,,
G2DIEP-R304B,-33.6875,18.61611,,
G2DIEP-R45BR,-33.44861,18.75972,,
G2DIEP-RHODE,-34.00694,18.41667,,
G2DIEP-UPSTR,-34.02639,18.46556,,
G2DIEP-VALLE,-33.56417,18.805,,
G2DISA-HELYH,-33.978,18.41002,,
G2DONK-VANDE,-33.68511,18.47958,,
G2EERS-ABSTW,-33.94722,18.84028,,
G2EERS-AQUAC,-33.965,18.925,,
G2EERS-ARCRC,-33.94958,18.83886,,
G2EERS-BESTW,-33.962,18.814,,
G2EERS-COETZ,-33.9377,18.87213,,
G2EERS-CONFL,-34.0625,18.74944,,
G2EERS-DSMSW,-34.07714,18.76868,,
G2EERS-FAURE,-34.035,18.745,,
G2EERS-GOEDV,-33.965,18.81,,
G2EERS-GWEIR,-33.93889,18.8875,,
G2EERS-JONKE,-34,18.993,,
G2EERS-KLEIN,-33.97222,18.93472,,
G2EERS-LANZ1,-33.94028,18.89167,,
G2EERS-LANZ2,-33.93889,18.88889,,
G2EERS-MACAS,-34.07,18.76361,,
G2EERS-MUNIC,-33.96108,18.91786,,
G2EERS-PLANK,-33.9435,18.84404,,
G2EERS-SPIER,-33.96886,18.78934,,
G2EERS-TOWNR,-33.939,18.865,,
G2EERS-UITSI,-33.98056,18.775,,
G2EERS-USMSW,-34.06972,18.76,,
G2EERS-VANRY,-33.975,18.785,,
G2EERS-VERGE,-33.96,18.8,,
G2EERS-WKLEI,-33.97367,18.93803,,
G2ELSE-DEGAM,-34.15,18.41,,
G2ELSE-GORDO,-34.15417,18.41917,,
G2ELSI-BELLS,-33.885,18.62972,,
G2ELSI-DIEME,-33.85611,18.62778,,
G2ELSI-TIENI,-33.90444,18.62278,,
G2GROE-N7WES,-33.55889,18.61667,,
G2GROO-KLEIN,-34.0375,18.42333,,
G2GROO-SPAAN,-34.04167,18.43167,,
G2HOUT-BETHA,-34.01917,18.36639,,
G2HOUT-DISAR,-34.01552,18.38105,,
G2HOUT-LONGK,-34.01083,18.38833,,
G2HOUT-ORANJ,-34.0025,18.39083,,
G2HOUT-PRINS,-34.04239,18.35616,,
G2HOUT-VICTO,-34.0293,18.35383,,
G2KALK-BUNGA,-33.95139,18.52139,,
G2KALK-UPSTR,-33.95611,18.54528,,
G2KEYS-CLOSE,-34.0625,18.45583,,
G2KEYS-LIZMO,-34.03127,18.43994,,
G2KEYS-MAINR,-34.07667,18.46389,,
G2KEYS-PARKV,-34.07,18.46,,
G2KEYS-VANSR,-34.06167,18.45444,,
G2KLAA-HOHEN,-33.99333,18.42667,,
G2KLAP-R304B,-33.72973,18.74343,,
G2KLAP-R304K,-33.72748,18.74083,,
G2KLIP-KROMM,-33.87,18.84,,
G2KROM-BCSIR,-33.95,18.91,,
G2KUIL-BADEN,-34.04333,18.7225,,
G2KUIL-BOTEL,-33.90667,18.67111,,
G2KUIL-DEBRO,-33.85762,18.66765,,
G2KUIL-DZAND,-34.05056,18.73056,,
G2KUIL-ENGEN,-33.91889,18.67667,,
G2KUIL-HINDL,-33.92935,18.6755,,
G2KUIL-LOERI,-33.92386,18.67828,,
G2KUIL-MADAL,-34.0448,18.7243,,
G2KUIL-UZAND,-34.04528,18.72694,,
G2KUIL-VYGBM,-33.84583,18.66778,,
G2KUIL-WESHD,-33.95361,18.66389,,
G2LANG-JONKE,-33.9875,18.97222,,
G2LANZ-LANZ1,-33.93611,18.9,,
G2LANZ-LANZ2,-33.93611,18.9,,
G2LIES-CANAL,-33.9325,18.4725,,
G2LIES-OBSER,-33.93667,18.47611,,
G2LIES-SANSS,-33.97333,18.46278,,
G2LIES-WINCH,-33.98833,18.43639,,
G2LITT-FISHE,-34.02,18.5,,
G2LITT-OTTER,-34.01667,18.49611,,
G2LOUR-BROAD,-34.098,18.82722,,
G2LOUR-ESTUA,-34.099,18.82,,
G2LOUR-INDUS,-34.1,18.83333,,
G2LOUR-KEGAQ,-34.07972,18.88495,,
G2LOUR-LOUR1,-34.05408,18.915,,
G2LOUR-LOURE,-34.029,18.95678,,
G2LOUR-LOURF,-34.024,18.97,,
G2LOUR-PREDP,-34.088,18.85,,
G2LOUR-RADLO,-34.08305,18.86907,,
G2LOUR-VERGB,-34.07935,18.88392,,
G2LOUR-VERGE,-34.07503,18.88902,,
G2LOUR-VERGL,-34.08333,18.88333,,
G2MAAS-DSKSW,-33.81944,18.70444,,
G2MAAS-USCON,-33.77917,18.71167,,
G2MAAS-USKSW,-33.825,18.70444,,
G2MOSS-MELLI,-33.76111,18.71528,,
G2MOSS-OOMAN,-33.68889,18.67222,,
G2MOSS-R304B,-33.65556,18.64583,,
G2MOSS-R312B,-33.77861,18.71917,,
G2MOSS-TYZOO,-33.81222,18.76611,,
G2MOSS-WJ302,-33.70444,18.69972,,
G2ORIG-ORANJ,-33.99667,18.39639,,
G2PLAN-KOELE,-33.92,18.85,,
G2PLAN-STELL,-33.93889,18.84722,,
G2PRIN-BEATR,-34.05417,18.44556,,
G2PRIN-USCON,-34.05392,18.44417,,
G2RIEB-SKOON,-33.44639,18.75583,,
G2SAND-LPRIN,-34.04972,18.47528,,
G2SAND-LTRAP,-34.07806,18.47306,,
G2SCHU-MAINR,-34.205,18.39889,,
G2SCHU-SCHUS,-34.20222,18.37444,,
G2SCHU-USEST,-34.20222,18.37722,,
G2SILV-GOLFC,-34.1211,18.41999,,
G2SILV-GORGE,-34.08111,18.41139,,
G2SILV-JEEPT,-34.07639,18.40142,,
G2SILV-OUKAA,-34.09481,18.41972,,
G2SILV-PIPEG,-34.12853,18.43072,,
G2SILV-POPLA,-34.1075,18.40961,,
G2SILV-SOURC,-34.06694,18.38639,,
G2SILV-SUNBI,-34.11147,18.40953,,
G2SILV-TRAN1,-34.07217,18.39289,,
G2SILV-TRAN2,-34.09114,18.41928,,
G2SILV-TRAN3,-34.10278,18.42028,,
G2SILV-UOUKA,-34.0925,18.42,,
G2SILV-USCCC,-34.11843,18.41763,,
G2SILV-WINKL,-34.13,18.44,,
G2SILW-BWEIR,-33.5832,18.36563,,
G2SILW-LOWER,-33.58,18.358,,
G2SILW-UWEIR,-33.5832,18.3647,,
G2SIRL-BWEDD,-34.1,18.93,,
G2SIRL-D/SN2,-34.126,18.889,,
G2SIRL-DGBSW,-34.14583,18.87167,,
G2SIRL-N2ROA,-34.124,18.892,,
G2SIRL-UGBSW,-34.14278,18.87806,,
G2SIRL-USLPV,-34.11611,18.90972,,
G2SIRL-WEDDE,-34.11611,18.90972,,
G2SKEL-UPPER,-33.98306,18.42611,,
G2SOSY-JONKE,-33.99,18.97,,
G2SOUT-BODSC,-33.7,18.47111,,
G2SOUT-CARAV,-33.714,18.446,,
G2SOUT-MWWTF,-33.70806,18.45944,,
G2SPAA-GILMO,-34.02111,18.42972,,
G2SPAA-MAINR,-34.02444,18.43556,,
G2SPAA-SOETV,-34.04944,18.44472,,
G2SPAA-SPAAN,-34.04944,18.44472,,
G2SWAR-JONKE,-33.99,18.96,,
G2TRIB-R304B,-33.68611,18.60972,,
G2TRIB-R312B,-33.78278,18.70944,,
G2VELD-SEWAG,-33.94561,18.82231,,
G2VYGE-ATHLO,-33.95139,18.51889,,
G2VYGE-LOERI,-33.95944,18.52778,,
G2VYGE-LORWG,-33.95389,18.52139,,
G2VYGE-PARKT,-33.96472,18.53667,,
G2WEST-ORANJ,-34.07528,18.45,,
G2WEST-STEEN,-34.07528,18.42972,,
G2WEST-UMAIN,-34.07861,18.45639,,
G2WIND-FOOTB,-33.975,18.42056,,
G2WIND-KIRST,-33.97778,18.42778,,
G2WIND-UPPER,-33.98111,18.42889,,
G3JAKK-KOOKF,-32.11747,18.42258,,
G3JANS-SOURC,-32.49103,18.83344,,
G3KROM-ROADB,-32.601,18.69125,,
G3KRUI-PIKET,-32.74825,18.80858,,
G3KRUI-R365B,-32.60194,18.74972,,
G3LANG-LUPOL,-32.22803,18.46797,,
G3VERO-REDEL,-32.472,18.5415,,
G4BATH-CALE1,-34.22806,19.46556,,
G4BATH-CALE2,-34.22806,19.46083,,
G4BATH-CALE3,-34.22833,19.44417,,
G4BOTR-DORIN,-34.45197,19.60453,,
G4BOTR-KANAA,-34.11664,19.235,,
G4BOTR-WILDE,-34.24092,19.21808,,
G4BUFF-CNTRL,-34.22,18.86083,,
G4BUFF-CONFL,-34.22,18.85889,,
G4HERM-SAFCO,-34.29403,19.11781,,
G4HOPI-WAQU1,-34.33153,19.17312,,
G4HOPI-WAQU2,-34.32861,19.16075,,
G4KLEI-BLUEG,-34.41672,19.53972,,
G4KLEI-GOUDI,-34.41064,19.19297,,
G4KLEI-WABOO,-34.40461,19.60658,,
G4ONRU-BRIDG,-34.41067,19.193,,
G4ONRU-HAYGR,-34.35192,19.26836,,
G4ONRU-VOLMO,-34.37836,19.23261,,
G4PALM-ARIES,-34.24402,18.99443,,
G4PALM-ELGIN,-34.16361,19.02056,,
G4PALM-GRABO,-34.1517,19.02468,,
G4PALM-KODAM,-34.225,18.99167,,
G4PALM-KOGFR,-34.31944,18.96957,,
G4PALM-NUWEB,-34.05833,19.04167,,
G4PALM-R45BR,-34.094,19.054,,
G4STEE-LOWER,-34.1943,18.8333,,
G4STEE-N2ROA,-34.14557,18.96,,
G4STRE-BNDRY,-34.22,18.86167,,
G4SWAR-CONFL,-34.25958,19.22483,,
G4UILK-BAARD,-34.58,19.481,,
G4UILK-GOEDV,-34.52711,19.53919,,
G4UILK-PAARD,-34.44022,19.61956,,
G4UILK-SALMO,-34.44019,19.61956,,
G5HEUNI-RIVER,-34.68861,20.03361,,
G5HOTN-CONFL,-34.28717,20.02417,,
G5KARS-KARS,-34.41331,19.82058,,
G5KARS-ROOID,-34.42972,19.91531,,
G5KARS-SOUTK,-34.47253,20.05753,,
G5KLEI-BOSKL,-34.54731,19.80733,,
G5KLIP-KLIPPE,-34.45169,19.90119,,
G5NUWE-BRAKP,-34.63403,19.865,,
G5NUWE-KERS,-34.57858,19.70792,,
G5PIET-BOSKL,-34.54233,19.81867,,
G5RATE-DIRKU,-34.71267,19.69803,,
G5SOES-SOESR,-34.34342,20.15356,,
G5SOUT-BRAKF,-34.36858,20.23775,,
G5SOUT-DWAFW,-34.29197,20.02336,,
G5SOUT-KLIPD,-34.22297,19.96242,,
G5SOUT-KYKOE,-34.34331,20.15336,,
G5SOUT-SOUTK,-34.26928,19.87472,,
G5SOUT-WYDGE,-34.39636,20.2905,,
H1BREE-CERES,-33.39,19.29,,
H1BREE-MOOIP,-33.52052,19.18695,,
H1BREE-NEKKI,-33.68417,19.42194,,
H1BREE-R101B,-33.65067,19.33482,,
H1BREE-SLANG,-33.54111,19.20694,,
H1BREE-WITBR,-33.42083,19.26667,,
H1BREE-WITEL,-33.41667,19.29056,,
H1BREE-WYSERS,-33.63492,19.29922,,
H1BROO-EFFLU,-33.75694,19.14167,,
H1DUTO-BRIDGE,-33.75778,19.14361,,
H1DUTO-DUTO3,-33.75694,19.13917,,
H1DUTO-DUTO4,-33.75972,19.13722,,
H1DUTO-DWEIR,-33.75639,19.14361,,
H1DUTO-UWEIR,-33.75639,19.14583,,
H1DWAR-EIKEN,-33.34194,19.30417,,
H1DWAR-EILAN,-33.36583,19.30778,,
H1DWAR-GOLFC,-33.3825,19.32028,,
H1DWAR-PUBLI,-33.36583,19.30778,,
H1DWAR-USCON,-33.34278,19.29889,,
H1DWAR-UWWTW,-33.38111,19.32611,,
H1ELAN-KRAAL,-33.76111,19.12778,,
H1ELAN-TUNNE,-33.73333,19.115,,
H1HART-BRAND,-33.55833,19.43333,,
H1HOLS-BRAND,-33.75833,19.32917,,
H1HOLS-RAWSO,-33.69318,19.32585,,
H1HOLS-STETT,-33.83694,19.2575,,
H1JAND-ELSKL,-33.55556,19.34333,,
H1KOEK-BRDG1,-33.36028,19.27889,,
H1KOEK-BRDG2,-33.36306,19.27806,,
H1KOEK-BRDG3,-33.36306,19.2775,,
H1KOEK-BRDG4,-33.36306,19.27639,,
H1KOEK-CERDM,-33.34726,19.26613,,
H1KOEK-CONFL,-33.36111,19.28056,,
H1KOEK-DCDAM,-33.36111,19.28056,,
H1KOEK-LOWFL,-33.35889,19.29833,,
H1KOEK-UCDAM,-33.33861,19.26611,,
H1KRAA-ABOVE,-33.76111,19.13333,,
H1KRAA-ARTIF,-33.76028,19.13556,,
H1KRAA-B1000,-33.76111,19.13333,,
H1KRAA-BE250,-33.76111,19.13333,,
H1KRAA-BE500,-33.76111,19.13333,,
H1KRAA-BEL50,-33.76111,19.13333,,
H1KRAA-BELOW,-33.76111,19.13333,,
H1KRAA-BETWE,-33.76083,19.13306,,
H1KRAA-UPSTR,-33.76083,19.13306,,
H1MODD-CASCA,-33.31167,19.28361,,
H1MOLE-BELOW,-33.725,19.18333,,
H1MOLE-DETOI,-33.73056,19.1125,,
H1MOLE-GR001,-33.725,19.18306,,
H1MOLE-GR007,-33.72194,19.18833,,
H1MOLE-GR008,-33.70222,19.2325,,
H1MOLE-GWEIR,-33.72333,19.17028,,
H1SLAN-EIKEB,-33.63094,19.2225,,
H1SMAL-LEBEN,-33.69967,19.29172,,
H1SMAL-RAWSO,-33.68862,19.31905,,
H1TITU-ACHTE,-33.39528,19.3575,,
H1VALS-FARMD,-33.43472,19.40472,,
H1WITE-MITCH,-33.42056,19.28278,,
H1WITR-MONUM,-33.64472,19.11,,
H1WITR-TWEED,-33.56667,19.15,,
H1WITT-TWEED,-33.57013,19.13912,,
H2AMAN-KLIPH,-33.51222,19.49972,,
H2HEXR-AMAND,-33.52889,19.54028,,
H2HEXR-GLENH,-33.54839,19.52672,,
H2HEXR-MEERL,-33.50631,19.55484,,
H2HEXR-N1BRI,-33.675,19.46389,,
H2ROOI-WORCE,-33.45833,19.61667,,
H2SAND-ROODE,-33.50972,19.53,,
H2SAND-SANDD,-33.48333,19.52917,,
H2SPEK-LAKEN,-33.36667,19.58056,,
H2UNSP-SANDD,-33.45278,19.55278,,
H2VALS-LAKEN,-33.32917,19.64167,,
H3DWAR-MEULP,-33.89167,20.3375,,
H3KEIS-BERGR,-33.78222,20.11472,,
H3KEIS-PIETE,-33.70919,20.05881,,
H3KING-ABRIK,-33.82639,20.23972,,
H3KING-ABSTW,-33.77028,20.14139,,
H3KING-BESTW,-33.78,20.11667,,
H3KING-LEGOL,-33.81417,20.09,,
H3KING-MONTA,-33.78806,20.13278,,
H4BREE-LECHA,-33.81667,19.69167,,
H4BREE-MOORD,-33.76617,19.54322,,
H4DORI-HIGHL,-33.91278,19.42639,,
H4DORI-LEMOE,-33.85386,19.47508,,
H4HOEK-MODDE,-33.85833,19.40833,,
H4HOOP-UITSI,-33.76472,19.92861,,
H4HOUT-DEHOE,-33.99167,19.81667,,
H4HOUT-VOORD,-33.975,19.81944,,
H4KEIS-MCGRE,-33.93333,19.845,,
H4KOGM-ASHTO,-33.87083,20.00333,,
H4KONI-KONIN,-33.89308,19.86472,,
H4KOOR-KEERO,-33.57244,19.70572,,
H4NUY-LEIPZ,-33.63056,19.675,,
H4NUY-R60BR,-33.71667,19.47917,,
H4NUYR-ABDAM,-33.57,19.70278,,
H4NUYR-GLENO,-33.64861,19.63917,,
H4NUYR-LOWER,-33.71694,20.09,,
H4RAAS-KEERO,-33.56989,19.69992,,
H4RIET-RIETV,-33.87778,19.67917,,
H4VINK-RIVER,-33.82083,19.79583,,
H4WILL-DASSI,-33.76483,19.86878,,
H5BOES-PIKKI,-34.04306,19.96389,,
H5BREE-ABBEY,-34,20.20139,,
H5BREE-DREWB,-34.00417,20.20833,,
H5BREE-SECUN,-33.89583,20.0125,,
H5GROO-STEEN,-33.98694,19.89,,
H5POEJ-SEVEN,-33.95611,19.58944,,
H5SKIL-BONNI,-33.93775,20.11069,,
H6BAVI-GENAD,-34.02917,19.55833,,
H6BOES-GREYT,-34.04083,19.625,,
H6DUTO-DOWNS,-33.90472,19.16278,,
H6DUTO-UPSTR,-33.90361,19.16278,,
H6DUTO-WEIR1,-33.94167,19.17083,,
H6ELAN-HIGHN,-33.95417,19.28111,,
H6FREE-N2ROA,-34.10583,20.27972,,
H6GOBO-GREYT,-34.04139,19.61917,,
H6PERD-MONTR,-33.89722,19.16806,,
H6PERD-SITEP,-33.89556,19.16833,,
H6RIVI-AVONT,-34.08133,20.086,,
H6RIVI-DWARS,-34.0775,19.29083,,
H6RIVI-ELANDS,-34.06944,19.47556,,
H6RIVI-GRABO,-34.06389,19.07083,,
H6RIVI-GREYT,-34.07222,19.62222,,
H6RIVI-HELDE,-34.085,19.37139,,
H6RIVI-KEERO,-34.09917,19.32472,,
H6RIVI-KLIPF,-34.07917,20.14583,,
H6RIVI-LEEUW,-34.11917,19.78556,,
H6RIVI-STORM,-34.08194,20.09556,,
H6RIVI-TYGER,-34.1239,19.71758,,
H6SOET-SOETM,-34.11033,19.74783,,
H7BREE-BONTE,-34.07639,20.45444,,
H7BREE-FELIX,-34.14472,20.47861,,
H7BREE-NAPYK,-34.24028,20.5125,,
H7BREE-SWELL,-34.05,20.40417,,
H7BUFF-ABN2R,-34.04556,20.535,,
H7BUFF-SUURB,-34.00417,20.65833,,
H7DUIW-MARLO,-33.99861,20.45833,,
H7GLEN-SWELL,-34.0125,20.45028,,
H7GROO-BUFFE,-34.00139,20.54944,,
H7HERM-HERMI,-33.9875,20.425,,
H7HUIS-BARRY,-33.91583,20.74639,,
H7KOOR-SWELL,-34.02389,20.44361,,
H7KRUI-TRADO,-34.00833,20.70278,,
H7LEEU-SWELL,-33.00278,20.33167,,
H7MELK-INFAN,-34.38694,20.68639,,
H7MEUL-BUFFE,-34.00333,20.52861,,
H7TRAD-BARRY,-33.92806,20.70861,,
H7TRAD-SANDR,-33.92583,20.60556,,
H7TRAD-WELTE,-33.91967,20.64072,,
H8DUIW-HEIDE,-34.02083,20.93333,,
H8DUIW-LOWER,-34.25167,20.99194,,
H8DUIW-N2ROA,-34.09081,20.96525,,
H8DUIW-SEEKO,-33.97767,20.99422,,
H8DUIW-UNAB1,-34.05083,20.96699,,
H8DUIW-UNAB2,-34.09146,20.96476,,
H8DUIW-UNBB1,-34.09459,20.96517,,
H8DUIW-UNBB2,-34.10693,20.97194,,
H8DUIW-VERMA,-34.25417,20.99167,,
H9GOUK-GWEIR,-34.09272,21.29408,,
H9GOUK-KLPFN,-34.27158,21.29858,,
H9GOUK-N2ROA,-34.15239,21.28056,,
H9GROO-GRTBS,-34.01392,21.39544,,
H9KORI-ABDAM,-33.98917,21.15833,,
H9KRUI-KRUIS,-34.02022,21.29908,,
H9VETR-BNOVO,-34.03389,21.23267,,
H9VETR-RVSDL,-34.09092,21.26536,,
J1BUFF-LAINS,-33.19147,20.85689,,
J1BUFF-NIROA,-33.19639,20.855,,
J1GROO-TIGER,-33.59528,21.14311,,
J1GROO-VANWY,-33.75819,21.46906,,
J1GROO-VANZY,-33.48231,21.02625,,
J1PRIN-MIERE,-33.54644,20.86047,,
J1TOUW-BOOKE,-33.65181,21.01458,,
J2DORP-EERST,-33.26667,22.05,,
J2GAMK-R62BR,-33.49631,21.62592,,
J2GAMK-WELGE,-33.63897,21.70989,,
J2HUIS-SEWEW,-33.41933,21.39717,,
J2HUIS-WELTE,-33.29167,21.79861,,
J2LEEU-N1ROA,-32.77489,21.98344,,
J2NELS-CADAM,-33.47386,21.72336,,
J2SCHO-SCHOL,-33.28889,22.02222,,
J2WATE-HELL1,-33.36347,21.62742,,
J2WATE-HELL2,-33.36394,21.58708,,
J3DIEP-CKAMM,-33.7244,22.80912,,
J3DORI-ZEBRA,-33.80539,22.25147,,
J3GROB-KLEIN,-33.48019,22.24467,,
J3GROO-MEIRI,-33.40806,22.55778,,
J3GROO-PARAD,-33.28042,22.35514,,
J3HOEK-CANGO,-33.368,22.17933,,
J3HOLD-ALFRE,-33.67445,23.14495,,
J3HUIS-SOUTK,-33.67075,22.52112,,
J3KAMM-CDIEP,-33.71528,22.79165,,
J3KAMM-UNION,-33.65378,23.13473,,
J3KLIP-BLOSS,-33.78,22.32,,
J3KLIP-KLIPD,-33.79,22.32,,
J3KLIP-ZEBRA,-33.80152,22.345,,
J3MEIR-MEIRI,-33.40972,22.55778,,
J3OLIF-CALIT,-33.66028,21.77333,,
J3OLIF-DYSSE,-33.57075,22.42112,,
J3OLIF-NOOIT,-33.62181,21.94828,,
J3OLIF-STOMP,-33.50857,22.69425,,
J3VLEI-ANDRI,-33.56507,21.89495,,
J3VLEI-COETZ,-33.46992,21.90003,,
J3VLEI-KRUIS,-33.43732,21.8881,,
J4CLOE-RPASS,-33.91983,21.74197,,
J4GOUR-HERBE,-34.08344,21.764,,
J4GOUR-POORT,-33.97994,21.65339,,
J4GOUR-VAALH,-33.74414,21.67686,,
J4GOUR-ZANDR,-33.90883,21.65331,,
J4JAKK-TOWER,-33.96361,21.72106,,
K1BOSM-FARMH,-33.9677,22.08,,
K1BRAN-PALMI,-34.05698,22.05738,,
K1KOUM-RUITE,-33.96108,21.97733,,
K1LEEU-LOWBR,-33.9777,22.09473,,
K1MOOR-ESTUA,-34.05433,22.13218,,
K1MOOR-GWEIR,-34.03977,22.13242,,
K1MOOR-HAMEL,-34.09,22.13,,
K1MOOR-LOWBR,-33.98978,22.12318,,
K1MOOR-PRIVA,-34.0121,22.14028,,
K1PALM-UNSPE,-33.99242,21.9776,,
K1PERD-LOWBR,-33.92595,22.05625,,
K2GREA-KLEIN,-33.97833,22.19333,,
K2VARI-JONKE,-33.9375,22.24222,,
K2VARI-KLEIN,-33.96,22.24139,,
K3DUIW-HOEKW,-33.96857,22.62323,,
K3DUIW-TRAIL,-33.98333,22.65108,,
K3GWAI-N2ROA,-34.00667,22.40417,,
K3KAAI-GWEIR,-33.97105,22.54773,,
K3KEUR-MONTA,-33.90694,22.41833,,
K3MAAL-R102B,-34.00611,22.34889,,
K3MALG-OUTEN,-33.93778,22.42194,,
K3MOER-GEELH,-33.95694,22.35667,,
K3SILW-BRIDG,-33.96495,22.5617,,
K3TOUW-BOSPL,-33.94658,22.61253,,
K3TOUW-WILDN,-33.97856,22.60528,,
K4DIEP-BERGP,-33.89718,22.68348,,
K4DIEP-DIEPR,-33.93827,22.70805,,
K4DIEP-GATBO,-33.91292,22.70767,,
K4DIEP-KLEIN,-33.85943,22.68153,,
K4HOMT-KNYSA,-33.94742,22.91933,,
K4HOOG-LAKBR,-33.9799,22.7997,,
K4HOOG-PASRD,-33.92578,22.77818,,
K4KARA-KNYSN,-33.90415,22.85322,,
K4KARA-LAKRD,-33.99845,22.82633,,
K4KLEI-LAKES,-33.97678,22.73632,,
K4WOLW-BARND,-33.9786,22.71913,,
K5GOUN-PUMPS,-33.99083,23.04028,,
K5KNYS-CHARL,-33.99833,23.00315,,
K5ROOI-GOUNA,-33.91898,23.07252,,
K5ROOI-TRIBU,-33.94445,23.03717,,
K6BITO-BHILL,-33.99456,23.29517,,
K6BITO-WITTE,-33.99956,23.34106,,
K6KEUR-DVLUG,-33.81175,23.17508,,
K6KEUR-RHINO,-33.9385,23.36636,,
K6KEUR-UNION,-33.76253,22.96292,,
K6NOET-BRAKE,-34.04611,23.16278,,
K6WITE-BRACK,-34.02058,23.16275,,
K6WITE-N2RDA,-34.03107,23.15827,,
K7BLOU-LOWER,-33.95178,23.64267,,
K7BLOU-UPPER,-33.95081,23.63875,,
K7GROO-NATVY,-33.9657,23.55885,,
K7SALT-KURLD,-33.92928,23.48953,,
K7SALT-TSKMA,-33.97388,23.5212,,
K8ELAN-LOWER,-33.96883,24.05383,,
K8ELAN-UPPER,-33.97128,24.06408,,
K8GROO-LOWER,-34.03497,24.20761,,
K8GROO-UPPER,-33.97278,24.12125,,
K8KLEI-BLUEL,-33.9654,23.81448,,
K8KLEI-BOSKO,-33.97732,23.81992,,
K8KROM-BOJAN,-33.88083,24.07528,,
K8KROM-DEWIL,-33.95582,24.34909,,
K8KROM-MELHO,-33.93728,24.27208,,
K8LOTT-LOWER,-33.96675,23.77953,,
K8LOTT-UPPER,-33.93297,23.72953,,
K8STOR-LOWER,-33.98064,23.91925,,
K8STOR-UPPER,-33.94922,23.91528,,
K9KROM-BOJAN,-33.88083,24.07528,,
K9KROM-DEWIL,-33.95582,24.34909,,
K9KROM-MELHO,-33.93728,24.27208,,
L7GAMT-PATEN,-33.76089,24.69356,,
L7GROO-BAVIA,-33.695,24.61139,,
L7GROO-KOMDO,-33.69528,24.61194,,
L7WITR-BRIDG,-33.75139,24.55056,,
L7WITR-GROOT,-33.66031,24.53501,,
L8BAV1-UPSTR,-33.807,24.43594,,
L8BAV2-DOWNS,-33.81363,24.42111,,
L8BAVI-BAVI2,-33.95619,24.26936,,
L8BAVI-NATUR,-33.62278,24.26917,,
L8BAVI-SITE1,-33.53786,23.96497,,
L8BAVI-SITE2,-33.95619,24.26936,,
L8BAVI-WILLO,-33.53778,23.965,,
L8GEEL-BAVIA,-33.95619,24.26936,,
L8KOUG-BOKOU,-33.71656,23.41128,,
L8KOUG-BRID1,-33.7175,23.41111,,
L8KOUG-BRIDG,-33.83306,24.10389,,
L8KOUG-OPKOM,-33.7884,24.02531,,
L8NABO-JOURB,-33.81991,23.84141,,
L9GAMT-BRIDG,-33.76056,24.69306,,
L9GAMT-PATEN,-33.76089,24.69356,,
L9GEEL-BLUEB,-33.79694,25.06167,,
L9GEEL-EMERA,-33.79662,25.06502,,
L9GEEL-LONGM,-33.80085,25.05735,,
L9KLEI-OTTER,-33.8039,24.9973,,
L9KLEI-SOUTH,-33.76818,25.02215,,
L9LOER-VLAKF,-33.81478,25.08947,,
M1SAND-LONGM,-33.75767,25.07423,,
M2SWAR-GROEN,-33.72206,25.30069,,
M2VANS-LONGM,-33.84787,25.22198,,
P4BLOU-BRIDG,-33.3905,26.70707,,
P4BLOU-RAILW,-33.32378,26.43336,,
P4KOWI-GRACE,-33.45769,26.69292,,
P4KOWI-LOWER,-33.50678,26.80972,,
P4KOWI-UPPER,-33.34928,26.56006,,
P4LASH-BRIDG,-33.463,26.80972,,
R1KEIS-ABCON,-32.901167,26.933833,,
R1KEIS-ABN2B,-33.06194,27.21083,,
R1KEIS-ABR72,-33.17389,27.37778,,
R1KEIS-BCHOR,-32.8187,26.99417,,
R1KEIS-BEAMW,-32.75972,27.06861,,
R1KEIS-BESAN,-32.717194,27.100556,,
R1KEIS-BEXEB,-32.81861,26.99417,,
R1KEIS-GCINI,-32.02306,27.08861,,
R1KEIS-NGXAK,-33.117639,27.317222,,
R1TYUM-BECON,-32.900167,26.92778,,
R1TYUM-FORTH,-32.767917,26.850611,,
R1TYUM-HOGSB,-32.61111,26.94778,,
R1TYUM-SOMPO,-32.601111,26.934778,,
R2BUFF-BKWTN,-32.91031,27.41028,,
R2BUFF-BPASS,-33.01,27.82,,
R2BUFF-HORSE,-32.8225,27.38028,,
R2BUFF-MADEN,-32.7225,27.29611,,
R2BUFF-ZWELI,-32.93178,27.43947,,
R2KWAN-POTSD,-32.98519,27.63875,,
R2MGQA-PIRIE,-32.78806,27.24972,,
R2MGQA-REFER,-32.78806,27.24972,,
R2NGQO-REFER,-32.91639,27.37917,,
R2SHAN-MDANT,-32.96975,27.71036,,
R2YELL-LONSD,-32.80833,27.47917,,
R2YELL-MIDDL,-32.92061,27.48833,,
R3NAHO-BADEN,-32.96167,27.87194,,
R3NAHO-HORSE,-32.94194,27.89639,,
R3NAHO-NAVEL,-32.86694,27.76528,,
R3NAHO-NEWLA,-32.86722,27.76528,,
R3NAHO-WOOLF,-32.85694,27.71944,,
S1WKEI-BXOND,-31.85528,27.18972,,
S1WKEI-STMAR,-32.01389,27.37417,,
S3BKEI-BULLH,-32.03444,26.65583,,
S3BKEI-MANDA,-32.17722,27.23972,,
S3BKEI-TURNS,-32.17861,27.33028,,
S4GKEI-GUIKA,-32.28333,27.6525,,
S5TSOM-KOMKH,-31.60917,27.67639,,
S5TSOM-R56BR,-31.36722,27.67083,,
S6KUBU-BRIDG,-32.50722,27.73167,,
S6KUBU-HAMME,-32.5625,27.62028,,
S7GKEI-GLENK,-32.54472,28.19389,,
S7GKEI-KEIBR,-32.50722,27.73139,,
T1KUNT-FRY31,-31.3426,28.08445,,
T1MBAS-N2BRI,-31.9225,28.45417,,
T1MBHA-MPOZO,-32.14667,28.8,,
T1MBHA-MVEZO,-31.95811,28.47364,,
T1MBHA-UPPER,-31.7775,28.36444,,
T1MGWA-MAKHO,-32.05778,28.54389,,
T1MGWA-NGCAC,-31.76944,28.12278,,
T1MGWA-R61BR,-31.73444,28.20083,,
T1MGWA-TORA1,-31.82167,28.18311,,
T1MNYO-BRIDG,-31.72278,28.45583,,
T1NTSU-FRY29,-31.44639,28.08419,,
T1XUKA-ABCON,-31.39722,28.32861,,
T1XUKA-MHLOP,-32.05778,28.54389,,
T1XUKA-R61BR,-31.66801,28.11248,,
T1XUKA-SLIND,-31.57953,27.95957,,
T2CICI-BRIDG,-31.55656,28.73753,,
T2MNGA-MIDDL,-31.62871,29.34435,,
T2MTHA-ALANG,-31.49281,28.47694,,
T2MTHA-ASAWM,-31.4928,28.47694,,
T2MTHA-BESAW,-31.4825,28.49327,,
T2MTHA-BLANG,-31.4825,28.49328,,
T2MTHA-BTOWN,-31.59314,28.80128,,
T2MTHA-EYE11,-31.50889,28.39639,,
T2MTHA-KAMBI,-31.47128,28.61511,,
T2MTHA-LONGQ,-31.85194,28.82,,
T2MTHA-MDUMB,-31.92581,29.13611,,
T2MTHA-MPIND,-31.86672,29.01881,,
T2MTHA-NTSAK,-31.68528,28.82083,,
T2MTHA-SOURC,-31.51,28.4,,
T2MTHA-TAKAT,-31.68536,28.82083,,
T2NGQU-UNSPE,-31.86836,28.87122,,
T3GATB-CHANT,-31.24677,28.11788,,
T3GATB-FORES,-31.41028,28.1975,,
T3GATB-GBVLI,-31.24622,28.11898,,
T3GATB-ING22,-31.21577,28.30128,,
T3GATB-ING23,-31.2274,28.26277,,
T3GATB-ING24,-31.20314,28.34254,,
T3GATB-ROS25,-31.24838,28.0693,,
T3GATB-ROS27,-31.23305,28.19181,,
T3HAWE-ELDHT,-30.86121,28.20433,,
T3HAWE-TSTE4,-30.84715,28.23531,,
T3KINI-GWEIR,-30.4816,28.62225,,
T3KINI-MABUA,-30.19173,28.59683,,
T3KMOI-GLN15,-31.09657,28.17479,,
T3KUNT-CASTE,-31.12312,28.23089,,
T3KUNT-CHL17,-31.1559,28.32254,,
T3KUNT-CHL19,-31.10077,28.31126,,
T3KUNT-MOFFI,-31.15622,28.32228,,
T3KUNT-STRAT,-31.1491,28.32056,,
T3LPOT-KRLNY,-30.98172,28.25924,,
T3MOOI-CHL16,-31.0748,28.30483,,
T3MOOI-COM18,-31.05969,28.33806,,
T3MOOI-COM19,-31.0575,28.29252,,
T3MOOI-GLN13,-31.07862,28.25905,,
T3MOOI-GLNOF,-31.0704,28.21211,,
T3MOOI-MCBDG,-31.08862,28.39262,,
T3MOOI-OAKRU,-31.07932,28.15497,,
T3MOOI-RIVER,-31.07456,28.30398,,
T3MVNY-OTPRT,-30.47046,28.93062,,
T3MZIM-BHUJE,-31.43897,29.29433,,
T3MZIM-JONES,-31.58056,29.114722,,
T3MZIM-MIDDL,-31.4526,29.59733,,
T3MZIM-N2ROA,-30.85077,29.0697,,
T3MZIM-SPRIN,-30.47722,29.006577,,
T3MZIM-UPPER,-31.35159,29.45966,,
T3MZIN-FLAGS,-31.1017,29.39989,,
T3MZIN-FRANK,-30.384417,29.434833,,
T3MZIN-FRANL,-30.39407,29.44825,,
T3MZIN-KUPOY,-31.1017,29.39989,,
T3MZIN-NTSHA,-30.866944,29.33162,,
T3MZNT-P0601,-30.38144,29.4498,,
T3MZVB-JNSBR,-30.15797,29.11462,,
T3NDIK-NTSZ2,-30.74822,29.28864,,
T3NKAN-NTSZ3,-30.67874,29.31293,,
T3NKAN-NTSZ4,-30.68913,29.29738,,
T3POTR-KLR12,-30.99263,28.34977,,
T3POTR-OAKLY,-30.97632,28.27463,,
T3POTR-PAASS,-30.87222,28.20886,,
T3POTR-RUSHB,-30.9845,28.32041,,
T3SIRO-NTSZ1,-30.72843,29.29406,,
T3TENT-WETLA,-30.89028,28.20861,,
T3THIN-N2BRI,-31.07417,29.00889,,
T3THIN-TSOLO,-30.63028,28.48111,,
T3TINA-N2BRI,-31.07467,28.89653,,
T3TINA-N2ROA,-31.07365,28.89583,,
T3TINA-R316R,-30.65927,28.20883,,
T3TINA-TSOLO,-30.63022,28.48242,,
T3TSIT-ANTPK,-30.81694,28.20621,,
T3TSIT-LALEN,-31.24512,28.90167,,
T3TSIT-NGRFL,-30.94489,28.42567,,
T3TSIT-TVALE,-30.87194,28.18167,,
T3WILD-DSUGI,-31.19768,28.25489,,
T3WILD-POPCV,-31.18886,28.23299,,
T3WILD-STE20,-31.21393,28.06706,,
T3WILD-STE21,-31.18282,28.16015,,
T4MTVN-SNWZA,-30.64992,29.67014,,
T4NTNT-NRDFR,-30.58051,29.71128,,
T4WEZA-DDGOZ,-30.618,29.771,,
T4WEZA-UDGOZ,-30.606,29.755,,
T5BISI-UPPER,-30.30103,29.70689,,
T5BISI-WELVE,-30.41942,29.85962,,
T5BMNS-DP125,-29.88353,29.28093,,
T5CABA-PIPEB,-30.17377,29.84127,,
T5GUNG-D634B,-30.03989,29.46675,,
T5GUNG-LOWER,-30.1219,29.64925,,
T5MAHO-MHOBE,-30.47747,29.88556,,
T5MGOD-NHF02,-30.28953,30.16172,,
T5MGOD-NHF04,-30.2996,30.15031,,
T5MGOD-NHF46,-30.23111,30.27361,,
T5MSHS-STRLH,-30.31169,29.85394,,
T5MSHU-ATB25,-30.35,29.88333,,
T5MSHU-REFST,-30.31667,29.41667,,
T5MZIM-@T52J,-30.55085,30.11059,,
T5MZIM-CALLA,-29.83177,29.52204,,
T5MZIM-CREIG,-30.05813,29.80338,,
T5MZIM-DRKGN,-29.7545,29.3265,,
T5MZIM-GIBRA,-30.65223,30.19769,,
T5MZIM-HSHOE,-30.62851,30.24432,,
T5MZIM-MBRDG,-30.25914,29.94408,,
T5MZIM-MIDDL,-30.35651,30.04816,,
T5MZKH-ORIBI,-30.70764,30.27069,,
T5MZKH-VNDYK,-30.71197,30.07552,,
T5NDWN-NDWNA,-29.97385,29.43571,,
T5NDWN-REDVE,-29.92511,29.25478,,
T5NGWN-CLFRD,-29.955,29.47691,,
T5NKNZ-EPS02,-29.90054,29.78603,,
T5NKNZ-EPS1B,-29.9054,29.78352,,
T5PHOL-CBHAM,-29.70092,29.41583,,
T5PHOL-PIERR,-29.8914,29.65986,,
T6MNEN-LOWER,-31.72165,29.35984,,
T7MNGA-LOWER,-31.61048,29.40458,,
T7MNGA-UPPER,-31.47874,29.038,,
T9SHIX-LOWER,-32.24233,28.67244,,
T9SHIX-MIDDL,-32.23803,28.58792,,
T9SHIX-UPPER,-32.17319,28.43792,,
U1ELAN-BOSCH,-29.64483,29.96075,,
U1ELAN-GOODH,-29.64555,29.98763,,
U1ELND-DSGUD,-29.7869,30.03316,,
U1LOTH-HLATH,-29.53815,29.59958,,
U1LUFA-NGBO4,-30.05174,30.04051,,
U1LUFA-STNHB,-30.05586,30.02242,,
U1LUFA-USMKO,-30.06191,30.12772,,
U1LUHN-BLWUN,-29.8392,29.76607,,
U1LUHN-DMKOB,-29.77364,29.86734,,
U1MKHO-CBWEL,-30.18172,30.7665,,
U1MKHO-SAICC,-30.182,30.759,,
U1MKHO-USCRA,-30.16889,30.68333,,
U1MKHO-USMKO,-29.63722,29.74278,,
U1MKMZ-MKLDG,-30.00638,30.19316,,
U1MKMZ-NUB05,-29.65087,29.60639,,
U1MKMZ-NUB06,-29.65469,29.58947,,
U1MKMZ-NUB16,-29.65469,29.58947,,
U1MKMZ-SANIP,-29.59913,29.32119,,
U1MKMZ-SHOZI,-30.13768,30.67373,,
U1MKOM-GOODB,-30.17088,30.70998,,
U1MKOM-HELLA,-29.91615,30.09621,,
U1MKOM-JOSEB,-30.00861,30.24417,,
U1MKOM-LUNDY,-29.74461,29.90353,,
U1MKOM-MKNZC,-29.62992,29.73842,,
U1MKOM-MQATS,-29.56569,29.5114,,
U1MKOM-SAICC,-30.18321,30.7609,,
U1MKOM-SHOZI,-30.13749,30.67377,,
U1MKOM-USLUN,-29.75054,29.89335,,
U1MKZN-USMKO,-29.63782,29.74313,,
U1MZNY-PNWD4,-29.64694,30.07444,,
U1NGUD-COMR1,-29.89167,29.94083,,
U1NGUD-COMR2,-29.88889,29.97222,,
U1NGUD-COMR3,-29.89861,29.98639,,
U1NGUD-DSCOM,-29.90257,29.9907,,
U1NHLA-USMKO,-30.04456,30.23978,,
U1NZIN-USMKO,-29.61556,29.77972,,
U1PATE-NRW07,-29.90622,30.17131,,
U1PATE-NRW10,-29.9259,30.17442,,
U1QUNU-NGB06,-30.01568,30.06088,,
U1XOBH-SHMRK,-30.13128,30.04822,,
U1XOBH-STN13,-30.12635,30.0577,,
U1XOBH-USNHL,-30.13135,30.16561,,
U1XOBH-USWWW,-30.15344,30.05839,,
U2BAYN-BAYNE,-29.5875,30.41444,,
U2BAYN-BGREY,-29.57528,30.41,,
U2CAMP-CDLOW,-29.61528,30.37667,,
U2DARV-DARFE,-29.60111,30.425,,
U2DORP-DSNES,-29.60639,30.44278,,
U2DORP-OHRRD,-29.59778,30.4,,
U2DORP-ORDRD,-29.6075,30.35722,,
U2DUZE-HNLWR,-29.64672,30.26008,,
U2DUZI-DROAD,-29.67389,30.16972,,
U2DUZI-EDENW,-29.63111,30.36,,
U2DUZI-EDHAG,-29.66056,30.63528,,
U2DUZI-MOTOX,-29.60722,30.45083,,
U2DUZI-NKANY,-29.61111,30.55778,,
U2DUZI-NTSTP,-29.65828,30.64944,,
U2DUZI-REFUS,-29.60194,30.41361,,
U2DUZI-USBAY,-29.59778,30.43111,,
U2DUZI-USDOC,-29.60333,30.39222,,
U2DUZI-USDVM,-29.60556,30.44356,,
U2GQIS-ASHLE,-29.5391,30.09608,,
U2GQIS-UPSTR,-29.56577,30.0885,,
U2KARK-DMB02,-29.2606,30.18663,,
U2KARK-DMB03,-29.29381,30.18324,,
U2KARK-DMB04,-29.29813,30.18545,,
U2KARK-DMB05,-29.30064,30.14283,,
U2KARK-DMB06,-29.31921,30.16397,,
U2KARK-DMB08,-29.33374,30.21429,,
U2KARK-DMBOI,-29.26522,30.19504,,
U2KARK-DMBRS,-29.31089,30.16731,,
U2KARK-SFT12,-29.40583,30.28528,,
U2KARK-SFT13,-29.40028,30.2825,,
U2KARK-SFTBB,-29.4,30.27,,
U2KARK-USMGN,-29.44383,30.31083,,
U2KUSA-SFT09,-29.40778,30.23194,,
U2KUSA-TETWO,-29.36758,30.21388,,
U2LION-WELTE,-29.44292,30.14847,,
U2MGEN-DNAGL,-29.59919,30.6272,,
U2MGEN-DSLID,-29.63609,30.68982,,
U2MGEN-DSMID,-29.499,30.222,,
U2MGEN-DSNAG,-29.60823,30.63764,,
U2MGEN-HOWIC,-29.48694,30.2375,,
U2MGEN-MIDMA,-29.48806,30.15611,,
U2MGEN-MORTO,-29.44222,30.32972,,
U2MGEN-MPOLW,-29.46472,30.46194,,
U2MGEN-MZINY,-29.72083,30.89,,
U2MGEN-NINAW,-29.64222,30.68806,,
U2MGEN-PETRU,-29.51272,30.09444,,
U2MGEN-RAMAP,-29.51,30.01806,,
U2MGEN-UBLUE,-29.809,31.00086,,
U2MGEN-USLVR,-29.78501,30.93854,,
U2MGEN-USMID,-29.497,30.222,,
U2MGEN-USMWW,-29.497,30.22194,,
U2MGEN-USNAG,-29.575,30.60333,,
U2MGNI-DRGLE,-29.47993,29.96997,,
U2MGNI-LKLYN,-29.46356,29.86219,,
U2MGNI-PTRST,-29.52142,30.09324,,
U2MHOL-GILBO,-29.26447,30.31408,,
U2MNGE-DSIND,-29.71444,30.86972,,
U2MNGE-USUMC,-29.66167,30.67833,,
U2MOLW-CMGEN,-29.75173,30.88934,,
U2MOLW-KKNRB,-29.77194,30.83093,,
U2MOOI-MMPLO,-29.38722,30.06361,,
U2MPOF-CAVER,-29.40778,30.08639,,
U2MPUS-ASHBR,-29.6485,29.66833,,
U2MQEK-CMGEN,-29.59922,30.72737,,
U2MTHZ-MPHOP,-29.55506,30.18821,,
U2NGUK-PNWD8,-29.43222,30.15131,,
U2NGUK-PNWD9,-29.58333,30.16417,,
U2NKUT-KKNRP,-29.74738,30.84888,,
U2NKUT-NKUTC,-29.75204,30.79885,,
U2NKUT-UNDRW,-29.7325,30.85141,,
U2PALM-SHIRE,-29.80664,30.96298,,
U2PIES-CMGEN,-29.80382,30.99303,,
U2PIES-COROB,-29.75111,31.0102,,
U2PIES-KWAMA,-29.73031,30.98262,,
U2RIET-USMGN,-29.50497,30.26841,,
U2SLAN-SUSDC,-29.64083,30.36583,,
U2UMHL-CHEM1,-29.7296,31.0033,,
U2UMHL-CHEM2,-29.72646,31.00647,,
U2UMHL-CHEM3,-29.72803,31.01232,,
U2UMHL-CHEMC,-29.73139,31.00194,,
U3HLAW-CTONG,-29.56322,31.13419,,
U3HLAW-SITE2,-29.58459,31.12635,,
U3HLAW-SITE3,-29.5939,31.11539,,
U3MDLO-CLNDS,-29.61993,31.05319,,
U3MDLO-DSVRL,-29.64,31.05028,,
U3MDLO-HAZEL,-29.60208,31.00902,,
U3MDLO-HAZIN,-29.58833,31.03028,,
U3MDLO-MLNDB,-29.64708,31.09161,,
U3MDLO-SITE4,-29.63025,31.08862,,
U3MDLO-SUPER,-29.60619,31.05803,,
U3MDLO-USVER,-29.62226,31.04494,,
U3MDLO-WWWM4,-29.64734,31.119,,
U3MDLO-WWWN2,-29.64918,31.10594,,
U3OHLA-N2BRG,-29.69536,31.07691,,
U3OHLA-OTTAW,-29.6765,31.03637,,
U3TONG-NGEDV,-29.53619,31.09265,,
U3TONG-USEST,-29.55981,31.17407,,
U4HLIM-HUSMC,-29.22833,31.03028,,
U4INTI-DRS04,-28.99356,30.62797,,
U4MVOT-DSHLI,-29.24028,31.02528,,
U4MVOT-GILBO,-29.23397,30.34322,,
U4MVOT-MPOOR,-29.13694,30.69694,,
U4MVOT-USHLI,-29.23497,31.02444,,
U4MVOT-WELVE,-29.35611,31.23412,,
U4MVOZ-DRS12,-29.12088,30.69549,,
U4MVOZ-DRS13,-29.1312,30.68872,,
U4MVTI-DRS15,-29.14899,30.70381,,
U4MVTI-HDGBB,-29.20806,30.52,,
U4MVTI-HDGKB,-29.24306,30.58611,,
U4MVTI-SHANK,-29.15986,30.62869,,
U4PMBL-PMBLA,-29.33625,30.94047,,
U5NONO-DLNN2,-29.30809,31.37291,,
U5NONO-DS600,-29.30415,31.3774,,
U5NONO-DSCON,-29.30808,31.37277,,
U6MBIL-BELRD,-29.8788,30.95749,,
U6MBIL-GOVRD,-29.88234,30.9627,,
U6MBOK-MBOKO,-30.00925,30.89019,,
U6MHLA-BOOTC,-29.8242,30.7758,,
U6MHLA-DSM13,-29.79893,30.74969,,
U6MHLA-HCWWW,-29.79802,30.75128,,
U6MHLA-M13BR,-29.7979,30.7513,,
U6MHLA-SUNDR,-29.76131,30.73936,,
U6MKUM-DSWIG,-29.85972,30.85056,,
U6MKUM-FRBRG,-29.86209,30.96773,,
U6MKUM-USWIG,-29.86056,30.94806,,
U6MKUZ-GREEN,-29.82583,30.30313,,
U6MLAZ-BYNES,-29.75402,30.3127,,
U6MLAZ-DSBAY,-29.74294,30.34498,,
U6MLAZ-DSFON,-29.953,30.928,,
U6MLAZ-DSHNG,-29.86576,30.72157,,
U6MLAZ-KWAND,-29.86879,30.7812,,
U6MLAZ-MLZTS,-29.92793,30.84075,,
U6MLAZ-P0502,-29.80972,30.5,,
U6MLAZ-SHONG,-29.85773,30.70509,,
U6MLAZ-USBAY,-29.756,30.289,,
U6MLAZ-USMET,-29.81048,30.56739,,
U6MLAZ-USMJP,-29.94333,30.85778,,
U6STER-DSCLI,-29.81417,30.68333,,
U6STER-DSHAM,-29.805,30.66417,,
U6STER-SHONG,-29.8525,30.71667,,
U6STER-U/SHAM,-29.77917,30.61917,,
U6STER-USHAM,-29.79744,30.65494,,
U6STER-USHSD,-29.77917,30.61917,,
U7LOVU-BATCH,-29.80722,30.1645,,
U7LOVU-ILLOV,-30.09695,30.82193,,
U7LOVU-MIDIL,-30.04664,30.52088,,
U7LOVU-NRE02,-29.97337,30.42068,,
U7LOVU-NRE03,-29.99984,30.43294,,
U7LOVU-RICHM,-29.86146,30.26196,,
U7MANZ-UCWAY,-30.07092,30.84887,,
U7NGAG-MAGAB,-30.16942,30.78327,,
U7NGAG-USWWW,-30.16678,30.77544,,
U7NUNG-NUNIN,-30.00778,30.73,,
U7UMGA-MNINI,-30.14813,30.81035,,
U7ZWAT-HIGHL,-29.84869,30.23383,,
U8FAFA-NBR01,-30.29942,30.42141,,
U8FAFA-NBR02,-30.30021,30.42118,,
U8MHLN-VRNCR,-30.28714,30.60296,,
U8MPAM-P0197,-30.27346,30.68706,,
U8MTWA-MDSWW,-30.47806,30.61,,
U8MTWA-WELLA,-30.4775,30.60694,,
U8MZIM-AMZIT,-30.26111,30.52222,,
U8MZIM-EJSIN,-30.31528,30.67028,,
U8MZIN-UMZIN,-30.30333,30.5884,,
V1BRMK-BRMKL,-28.33599,29.59139,,
V1BRMK-BRMKU,-28.2912,29.55934,,
V1BRMK-DEBRS,-28.29937,29.47983,,
V1LTUG-AMBLS,-28.80481,29.5413,,
V1LTUG-DSWIN,-28.80643,29.53651,,
V1NGWY-N3BRG,-28.44091,29.4933,,
V1SAND-WTN06,-29.01568,29.48171,,
V1SAND-WTN07,-29.04859,29.47232,,
V1SITU-WTN02,-28.90352,29.3989,,
V1THUK-TUGEL,-28.75633,30.15038,,
V2LITT-DSHLA,-29.23111,29.92556,,
V2MOOI-DWEIR,-29.07111,30.24611,,
V2MOOI-KEATD,-28.86917,30.50817,,
V2MOOI-SPRING,-29.31611,29.96917,,
V2UNSP-KMBRG,-29.38435,29.65298,,
V3BUFF-DJAEG,-28.01111,30.39282,,
V3LYNN-FLNSB,-27.81805,30.62024,,
V3MZNY-P0190,-28.3255,30.49269,,
V3NCND-LEYDN,-27.85144,29.75663,,
V3NGGN-CHLMS,-28.04074,29.78573,,
V3NGOG-NGHRT,-27.58151,29.87571,,
V3SAND-CTSWL,-28.09882,30.31853,,
V3SLNG-NCHTW,-27.42067,30.29681,,
V4MNDL-DPTNK,-28.89715,30.93104,,
V4MNDL-OVRSC,-28.92821,30.87252,,
V4TUGE-MIDDT,-28.89889,31.02694,,
V6NKNZ-QUAGG,-28.16863,29.95129,,
V6SMPF-D1363,-28.68055,30.41361,,
V6WSBK-P0032,-28.46345,30.1819,,
V7BUSH-MOORP,-29.08351,29.828,,
W1EVTH-D1595,-29.06745,31.48596,,
W1LENJ-NAT29,-27.86365,31.06208,,
W1MATI-RES21,-29.0201,31.4704,,
W1MBAB-USBRD,-28.67667,32.02806,,
W1MFLE-ELIZB,-28.51589,31.43614,,
W1MHLA-GWEIR,-28.74695,31.74745,,
W1MPOS-UMF08,-28.63361,32.07417,,
W1NSEL-SISUZ,-28.6341,31.9309,,
W1NWKU-MTGLU,-28.94142,31.39416,,
W2BMFU-BOSCH,-28.0139,31.3243,,
W2BMFU-CHRIS,-27.9389,31.2103,,
W2MFOL-CONFL,-28.36028,32.00633,,
W2MPMB-WLLST,-28.34747,31.13179,,
W2MVNY-P0016,-28.11893,30.86685,,
W2SKWB-GRTGL,-27.90033,31.36522,,
W2WMFU-LANGV,-28.23146,31.1883,,
W3HLHW-HLWGR,-28.13856,32.01995,,
W3MBZW-MBMVN,-27.61733,32.54897,,
W3MKZE-D0230,-27.69256,31.21129,,
W3MKZE-DNYDR,-27.59227,32.21795,,
W4BIVN-NTLSP,-27.52937,30.86144,,
W4NGWV-D1840,-27.09847,32.06866,,
W4PONG-BENPO,-27.36413,30.96962,,
W4PONG-N2PON,-27.39519,31.82661,,
W4TSAK-NAT25,-27.44042,30.50351,,
W5ANYS-ANYSS,-27.00837,30.59567,,
W5ANYS-TOWER,-27.04766,30.57794,,
W5ASSE-AMAKA,-27.01909,30.72671,,
W5ASSE-ZANDB,-27.0623,30.9888,,
W5BILL-FERNI,-26.29241,30.49697,,
W5BILL-JESSI,-26.2875,30.49058,,
W5METU-BLAIR,-26.395,30.75138,,
W5MPUL-CLAR1,-26.25263,30.70769,,
W5MPUL-CLARE,-26.25708,30.67183,,
W5MPUL-ROUND,-26.28497,30.56261,,
W5SWAR-IZIVI,-26.32591,30.70813,,
W5SWAR-NEWSC,-26.34522,30.74125,,
W5UNSP-ARTHU,-26.27552,30.63447,,
W5UNSP-LIONS,-26.2473,30.70066,,
W5UNSP-REFER,-27.00022,30.37394,,
W5UNSP-WETLA,-26.97958,30.38361,,
X1BLIN-DOORN,-26.04333,31.05,,
X1BLIN-KRANS,-26.04997,31.05354,,
X1BOES-BOESM,-26.0932,30.0859,,
X1BOES-ROODE,-26.02357,30.06092,,
X1BUFF-BADPL,-25.95306,30.55778,,
X1BUFF-DOORN,-26.06264,30.39378,,
X1BUFF-ZILVE,-26.00889,30.45444,,
X1GLAD-VAALK,-25.77172,30.62717,,
X1GLAD-VRIES,-25.83722,30.67417,,
X1HLAT-RIETF,-26.02361,30.36111,,
X1KKOM-WELGE,-25.8875,30.12056,,
X1KOMA-BHALE,-26.10003,31.51443,,
X1KOMA-BILTO,-25.61389,31.86083,,
X1KOMA-DAMBA,-26.05523,31.2518,,
X1KOMA-ELSAN,-25.64267,31.81522,,
X1KOMA-GEMSB,-25.85417,30.38222,,
X1KOMA-GEVON,-25.85433,30.37664,,
X1KOMA-GROOT,-25.85444,30.5725,,
X1KOMA-HILLC,-26.02889,31.05639,,
X1KOMA-HOOGE,-26.03528,30.99778,,
X1KOMA-IFR02,-26.11573,31.45585,,
X1KOMA-IFR03,-25.99737,31.5858,,
X1KOMA-IFR04,-25.681,31.78315,,
X1KOMA-KOMAT,-26.0231,30.9006,,
X1KOMA-KPOOR,-25.44222,31.96444,,
X1KOMA-KROMD,-26.03881,31.00314,,
X1KOMA-LEBOM,-25.44886,31.95783,,
X1KOMA-LEKKE,-25.85444,30.48333,,
X1KOMA-LUHUM,-26.04357,31.17023,,
X1KOMA-MALOL,-26.05372,31.12953,,
X1KOMA-MELET,-26.08214,31.35515,,
X1KOMA-MOEDI,-25.895,30.17639,,
X1KOMA-NYATS,-25.82188,31.82616,,
X1KOMA-SIBAN,-25.86667,31.80139,,
X1KOMA-SILIN,-26.0995,31.39822,,
X1KOMA-TJAKA,-25.97389,30.8225,,
X1KOMA-TONG2,-25.67988,31.78858,,
X1KOMA-TONGA,-25.66697,31.80133,,
X1KOMA-VERGE,-25.63806,31.80583,,
X1KOMA-VYGEB,-25.94194,30.67889,,
X1KOMA-WATER,-25.89828,30.2845,,
X1KOMA-WELGE,-25.90955,30.15747,,
X1LOMA-BROKE,-25.81894,31.3114,,
X1LOMA-HIGHL,-25.83233,31.11699,,
X1LOMA-KLEIN,-25.64944,31.62319,,
X1LOMA-LEKKE,-25.63518,31.77914,,
X1LOMA-MBONG,-25.75736,31.43655,,
X1LOMA-SCHOE,-25.68629,31.52879,,
X1MAMB-ELSAN,-25.65811,31.83605,,
X1MBUL-MPOFU,-25.92469,31.52623,,
X1MHLA-GROOT,-25.83626,30.56834,,
X1MHLA-RUSOO,-25.63447,31.50451,,
X1MKHO-MAGUG,-26.03989,31.26615,,
X1MLON-BMINE,-26.19211,31.01138,,
X1MLON-KRANS,-26.05772,31.03248,,
X1MLON-MAANH,-26.07528,31.00694,,
X1MLUM-HIGHL,-25.81389,31.09389,,
X1MLUM-RICHE,-25.62722,31.66,,
X1MLUM-WELGE,-25.83743,31.1137,,
X1MNGU-VYGEB,-25.86514,30.66661,,
X1MTSO-DIEPG,-26.00167,31.07361,,
X1MZIM-MANSE,-26.04071,31.52635,,
X1MZIN-MASHU,-25.69248,31.73264,,
X1NDUB-BERGS,-25.95658,30.38286,,
X1NDUB-LEKKE,-25.84469,30.47463,,
X1NDUB-SAPPI,-25.8447,30.47466,,
X1NGWE-KOMAT,-25.45656,31.91683,,
X1NKOM-MALOL,-26.02851,31.16358,,
X1NYON-NYONY,-26.13236,31.48093,,
X1PHOP-MAGUT,-25.83217,31.3692,,
X1POPO-VRIES,-25.8453,30.6642,,
X1SAND-KORTB,-26.0351,30.93432,,
X1SAND-MOOIP,-26.0494,30.899,,
X1SAND-ROODE,-26.0614,30.8775,,
X1SEEK-DOORN,-25.94773,30.57494,,
X1SEEK-WINKE,-25.96139,30.61846,,
X1SWAR-HEBRO,-25.92519,30.23756,,
X1TEES-HEUNI,-26.01583,30.80861,,
X1TEES-TEESP,-26.01931,30.85203,,
X1TEES-WELVE,-26.05785,30.65012,,
X1UGUT-ZEIST,-25.76321,31.24677,,
X1VAAL-BOESM,-26.00713,30.02756,,
X1WITK-WITKL,-25.96086,30.04052,,
X2ALEX-LANGD,-25.22558,30.42723,,
X2BLOU-KRANS,-25.62583,30.3075,,
X2BLYS-UITSO,-25.28752,30.59537,,
X2CONC-CONFL,-25.83381,30.96944,,
X2CONC-DIVER,-25.82375,30.99569,,
X2CONC-LEVEL,-25.81975,31.00378,,
X2CONC-MOODI,-25.80694,31.01217,,
X2CONC-ROADB,-25.82936,30.97775,,
X2CROC-BOSC1,-25.445,30.967,,
X2CROC-BOSC2,-25.44819,30.94463,,
X2CROC-BOSCH,-25.462,30.955,,
X2CROC-CROCB,-25.361,31.895,,
X2CROC-DONKE,-25.46858,30.2266,,
X2CROC-DOORN,-25.393,30.408,,
X2CROC-FISHI,-25.46861,30.96014,,
X2CROC-FRIE2,-25.45541,30.94933,,
X2CROC-FRIED,-25.462,30.996,,
X2CROC-GOEDE,-25.409,30.316,,
X2CROC-HALLS,-25.45336,30.94831,,
X2CROC-INDEM,-25.43,30.64,,
X2CROC-KAAPM,-25.536,31.312,,
X2CROC-KATSE,-25.508,31.199,,
X2CROC-KINGS,-25.459,31.058,,
X2CROC-LIONS,-25.463,31.003,,
X2CROC-LWAKA,-25.386,31.7,,
X2CROC-MALEL,-25.486,31.502,,
X2CROC-MAROE,-25.378,31.731,,
X2CROC-MBYAM,-25.315,31.749,,
X2CROC-MONTR,-25.449,30.71,,
X2CROC-MVOVO,-25.501,31.466,,
X2CROC-N4ROA,-25.499,31.179,,
X2CROC-NGONG,-25.391,31.976,,
X2CROC-RIETV,-25.387,30.566,,
X2CROC-RIVE2,-25.45316,30.94916,,
X2CROC-RIVER,-25.459,31.535,,
X2CROC-SCHAG,-25.43,30.79,,
X2CROC-STERK,-25.374,30.481,,
X2CROC-STRKS,-25.441,30.889,,
X2CROC-VALYS,-25.45713,30.12987,,
X2CROC-VELOR,-25.349,30.11,,
X2CROC-WELT1,-25.519,31.239,,
X2CROC-WELTE,-25.515,31.227,,
X2EAST-DOWNS,-25.44794,31.03392,,
X2ELAN-DEGOE,-25.6875,30.19917,,
X2ELAN-EHOEK,-25.494,30.703,,
X2ELAN-GOEDG,-25.528,30.698,,
X2ELAN-HEMLO,-25.599,30.56,,
X2ELAN-LINDE,-25.486,30.701,,
X2ELAN-MALAG,-25.59735,30.44694,,
X2ELAN-MILLY,-25.68395,30.2105,,
X2ELAN-ROODE,-25.567,30.662,,
X2ELAN-WATER,-25.63,30.331,,
X2ELAN-WELTE,-25.605,30.528,,
X2ELFS-DLFBR,-25.479,30.227,,
X2ELFS-DONKE,-25.48233,30.22523,,
X2GINC-GLENT,-25.73248,30.8238,,
X2GLAD-CARAV,-25.46594,30.94472,,
X2GLAD-ELAND,-25.53118,30.84997,,
X2GLAD-HERMA,-25.51808,30.86547,,
X2GLAD-JOUBE,-25.54357,30.78398,,
X2GLAD-N4BRI,-25.46672,30.94922,,
X2HART-WATER,-25.696,30.143,,
X2HOUT-ELAND,-25.36085,30.66873,,
X2KAAP-DOLTO,-25.54278,31.31722,,
X2KALM-KALMO,-25.31302,30.50198,,
X2KARE-KAREE,-25.431,30.211,,
X2LEEU-GELUK,-25.66,30.259,,
X2LUNS-KRUIS,-25.374,30.23,,
X2LUNS-VELOR,-25.31,30.147,,
X2NDLO-SAPPI,-25.80052,30.89519,,
X2NELS-DOORN,-25.24355,30.69408,,
X2NELS-R40RO,-25.42128,30.95155,,
X2NOOR-HILGA,-25.66419,31.08216,,
X2NOOR-RIETB,-25.65157,30.82337,,
X2NOOR-SABEY,-25.66325,30.77605,,
X2NOOR-SE6AL,-25.65261,31.06011,,
X2PION-ALLUV,-25.83372,30.96881,,
X2PION-ALPIN,-25.83544,30.96328,,
X2QUEE-FRANT,-25.79969,30.89674,,
X2RIET-RIETS,-25.63338,30.49922,,
X2RIME-WELTE,-25.75719,31.04697,,
X2STER-R539B,-25.41582,30.49332,,
X2SUID-CLARE,-25.70777,31.05852,,
X2SUID-DIXIE,-25.71755,31.04188,,
X2SUID-IMPOP,-25.70527,30.80575,,
X2SUID-JOESL,-25.66444,31.12389,,
X2SWAR-GOEDE,-25.55708,30.29615,,
X2TAUT-WINNA,-25.643,30.22,,
X2UITK-UITKY,-25.29122,30.50872,,
X2UNSP-DOORN,-25.7717,30.62716,,
X2UNSP-PICNI,-25.81897,31.02108,,
X2UNSP-RIETS,-25.63519,30.51672,,
X2WEST-DOWNS,-25.44736,31.03028,,
X2WILG-WILGE,-25.4923,30.28573,,
X2WOND-KALMO,-25.33662,30.52602,,
X2WOND-WELTE,-25.33355,30.58092,,
X3ALBA-BREDA,-25.02647,30.94755,,
X3BRID-BRIDA,-25.08517,30.72875,,
X3BRID-CEYLO,-25.09905,30.75197,,
X3COOP-KLDAM,-25.04505,30.82305,,
X3COOP-KLIPK,-25.02488,30.82533,,
X3COOP-SABIE,-25.0691,30.82461,,
X3DRDE-FRANK,-25.058,30.88122,,
X3FRAN-FRANK,-25.05339,30.90794,,
X3GOUD-BERGV,-25.08556,30.89222,,
X3GOUD-GOUDS,-25.07088,30.90137,,
X3GRAS-GRASK,-24.95752,30.83239,,
X3JANT-SABIE,-25.14033,30.67544,,
X3KAMA-BREDA,-25.04066,30.92222,,
X3KAMA-FRANK,-25.03491,30.9025,,
X3KSAB-KLEIN,-25.06355,30.79122,,
X3KSAB-LOGDE,-25.07065,30.7905,,
X3KSAB-TWEEF,-25.05358,30.7913,,
X3KSAN-ROOIB,-24.658,31.089,,
X3LONE-CEYLO,-25.09807,30.6892,,
X3LONE-LONEC,-25.10413,30.71333,,
X3LONE-MARIT,-25.09808,30.67711,,
X3LONE-OLIFA,-25.11791,30.72391,,
X3MACM-BRAND,-25.03,31.026,,
X3MACM-DRIEK,-24.90107,30.82372,,
X3MACM-FALLS,-24.9733,30.8165,,
X3MACM-GRASK,-24.95447,30.82808,,
X3MACM-RICHM,-25.00269,30.98694,,
X3MACM-VENUS,-25.008,30.926,,
X3MACM-WELKO,-24.99972,30.86694,,
X3MADI-VOORU,-24.75444,30.94108,,
X3MALI-FFALL,-24.97258,30.81736,,
X3MALI-RIETF,-25.09561,30.84744,,
X3MANY-MANYE,-25.12211,30.72305,,
X3MANY-OLIFA,-25.16494,30.71083,,
X3MARI-BOSBO,-24.985,31.11,,
X3MARI-INJAK,-24.89153,31.08893,,
X3MARI-MARIT,-24.9607,31.10838,,
X3MARI-R40BR,-24.96028,31.10889,,
X3MARI-REDRJ,-25.0248,31.1441,,
X3MARI-SANDF,-25.00813,31.11465,,
X3MARI-VERSA,-24.84,30.956,,
X3MARI-WALES,-24.861,31.061,,
X3MEET-HEBRO,-24.67778,30.94394,,
X3MOHL-FORES,-24.66252,30.93277,,
X3MOHL-VOORU,-24.75053,30.93889,,
X3MOHL-WELGE,-24.74,30.921,,
X3MOHL-ZOEKN,-24.763,30.975,,
X3MOTI-DIEPD,-24.9897,31.04873,,
X3MOTI-KLEIN,-24.9855,31.02444,,
X3MOTI-ROODE,-24.9555,30.95192,,
X3MOTL-HEBRO,-24.66031,30.94953,,
X3MUTL-NEWFO,-24.756,31.132,,
X3MUTL-THULA,-24.73361,31.2325,,
X3MUTL-VIOLE,-24.758,31.015,,
X3NGWA-ROODE,-24.91208,30.89255,,
X3NGWA-VADER,-24.89919,30.96319,,
X3NSAN-HAZYV,-25.03792,31.15453,,
X3NWAR-DORIN,-24.897,31.007,,
X3NWAR-GODSW,-24.912,30.853,,
X3NWAR-VERSA,-24.902,30.95,,
X3PHAS-WILGE,-24.937,30.941,,
X3POOL-GEELH,-25.01011,30.82516,,
X3SABI-AANDE,-25.031,31.049,,
X3SABI-AMILL,-25.10722,30.74475,,
X3SABI-ANTHO,-24.96347,31.74279,,
X3SABI-BERGV,-25.08078,30.82935,,
X3SABI-BORDE,-25.185,32.031,,
X3SABI-BRAND,-25.03,31.027,,
X3SABI-CAL01,-25.018,31.244,,
X3SABI-CAL03,-25.019,31.205,,
X3SABI-CASTL,-25.093,30.768,,
X3SABI-FRANK,-25.06,30.888,,
X3SABI-GROUB,-25.15205,30.6385,,
X3SABI-HAZYV,-25.024,31.145,,
X3SABI-HOXAN,-25.019,31.218,,
X3SABI-HSFALL,-25.13637,30.68373,,
X3SABI-HSHOE,-25.13196,30.69108,,
X3SABI-IFR05,-25.057,31.819,,
X3SABI-LTPAS,-25.147,30.668,,
X3SABI-LUBYE,-25.099,31.886,,
X3SABI-LUNSK,-25.0485,30.93097,,
X3SABI-MEETW,-24.968,31.517,,
X3SABI-NWATI,-24.971,31.4,,
X3SABI-OLIFA,-25.121,30.717,,
X3SABI-ONSPL,-25.033,31.099,,
X3SABI-PERRY,-25.03,31.127,,
X3SABI-REDRI,-25.0248,31.1441,,
X3SABI-RIETF,-25.073,30.851,,
X3SABI-RIOOL,-25.089,30.8,,
X3SABI-SANBO,-25.023,31.169,,
X3SABI-SAWMI,-25.102,30.751,,
X3SABI-SEKUR,-24.98889,31.2894,,
X3SABI-SHOEK,-25.10944,30.73417,,
X3SABI-SKEUR,-25.021,31.176,,
X3SABI-SKUKU,-24.985,31.587,,
X3SABI-SNOOK,-25.07938,30.82638,,
X3SABI-SPOOR,-25.16,32,,
X3SABI-TEVRE,-25.034,30.996,,
X3SABI-ZEEDE,-25.04043,30.97095,,
X3SAND-ALLAN,-24.73167,31.26583,,
X3SAND-CHAMP,-24.68278,31.09861,,
X3SAND-DINGL,-24.679,31.147,,
X3SAND-FLOCK,-24.841,31.553,,
X3SAND-HEBRO,-24.71148,30.93017,,
X3SAND-KIRKM,-24.92819,31.5781,,
X3SAND-LONDO,-24.791,31.523,,
X3SAND-OTHAW,-24.767,31.406,,
X3SAND-ROLLE,-24.721,31.236,,
X3SAND-SKUKU,-24.967,31.627,,
X3SAND-STRIB,-24.72502,30.93418,,
X3SAND-THULA,-24.715,31.205,,
X3SAND-WELGE,-24.71194,30.93861,,
X3SAWM-MILLS,-25.12802,30.80933,,
X3SAWM-SPITS,-25.13578,30.81015,,
X3SEKG-FORES,-24.6936,30.92942,,
X3SPIT-RIET2,-25.11461,30.81488,,
X3SPIT-RIET3,-25.11305,30.81069,,
X3SPIT-RIETF,-25.09638,30.80538,,
X3SPIT-SPITS,-25.14705,30.83011,,
X3STRI-LONGT,-25.13258,30.66647,,
X3SUNL-GEELH,-24.97433,30.83969,,
X3SUNL-VENUS,-25.004,30.92494,,
X3TSWA-ONVER,-24.78622,30.95947,,
X3UNSP-RIET2,-25.09311,30.81391,,
X3UNSP-RIETF,-25.11283,30.81,,
X3VERT-SHEBA,-25.14644,30.77966,,
X3WATE-WATER,-24.948,30.888,,
X3WHIT-DAGAM,-25.14055,31.02295,,
X3WITW-BERGV,-25.13041,30.92469,,
X3WITW-HEBRO,-25.13708,30.91177,,
X3WITW-WITWA,-25.1595,30.99993,,